[{"id":11319,"name":"Utsunomiya Line","ja":"宇都宮線","color":"#40d46e","circular":false,"stations":[{"name":"Ueno","ja":"上野","lat":35.71379,"lng":139.777043},{"name":"Takeshi","ja":"尾久","lat":35.74683,"lng":139.753846},{"name":"Akabane","ja":"赤羽","lat":35.778026,"lng":139.720928},{"name":"Urawa","ja":"浦和","lat":35.858496,"lng":139.657109},{"name":"Saitama Shintoshin down center","ja":"さいたま新都心","lat":35.893867,"lng":139.633587},{"name":"Omiya","ja":"大宮","lat":35.906439,"lng":139.62405},{"name":"Touro","ja":"土呂","lat":35.931997,"lng":139.63214},{"name":"Higashi Omiya","ja":"東大宮","lat":35.948751,"lng":139.640291},{"name":"Hida","ja":"蓮田","lat":35.981272,"lng":139.653016},{"name":"Shiraoka","ja":"白岡","lat":36.01774,"lng":139.666826},{"name":"Shinbaoka","ja":"新白岡","lat":36.038732,"lng":139.67208},{"name":"Kuki","ja":"久喜","lat":36.065684,"lng":139.67727},{"name":"Eastern Washi Palace","ja":"東鷲宮","lat":36.089428,"lng":139.67913},{"name":"Kurihashi","ja":"栗橋","lat":36.136852,"lng":139.694177},{"name":"Furukawa","ja":"古河","lat":36.194375,"lng":139.709726},{"name":"A tree","ja":"野木","lat":36.229963,"lng":139.734729},{"name":"Zushida","ja":"間々田","lat":36.257907,"lng":139.761039},{"name":"Oyama","ja":"小山","lat":36.312747,"lng":139.806241},{"name":"Koganei","ja":"小金井","lat":36.374435,"lng":139.842232},{"name":"Self-governing doctor","ja":"自治医大","lat":36.39543,"lng":139.854524},{"name":"Ishibashi","ja":"石橋","lat":36.43651,"lng":139.866536},{"name":"A shogunyu","ja":"雀宮","lat":36.493845,"lng":139.876811},{"name":"Utsunomiya","ja":"宇都宮","lat":36.559246,"lng":139.898389},{"name":"Okamoto","ja":"岡本","lat":36.598182,"lng":139.944363},{"name":"Takamaruji","ja":"宝積寺","lat":36.631703,"lng":139.979487},{"name":"A family house","ja":"氏家","lat":36.681696,"lng":139.9621},{"name":"Kamisaka","ja":"蒲須坂","lat":36.720727,"lng":139.950461},{"name":"Kataoka","ja":"片岡","lat":36.754557,"lng":139.945665},{"name":"Pile sheet","ja":"矢板","lat":36.80655,"lng":139.932912},{"name":"Nozaki","ja":"野崎","lat":36.843722,"lng":139.957752},{"name":"Nishinasuno","ja":"西那須野","lat":36.883726,"lng":139.986383},{"name":"Nasushiobara","ja":"那須塩原","lat":36.931956,"lng":140.020694},{"name":"Kuroiso","ja":"黒磯","lat":36.970128,"lng":140.060204}]},{"id":11320,"name":"JR Joban Line (Ueno - Toride)","ja":"JR常磐線(上野～取手)","color":"#009BBF","circular":false,"stations":[{"name":"Ueno","ja":"上野","lat":35.71379,"lng":139.777043},{"name":"Nippori","ja":"日暮里","lat":35.727908,"lng":139.771287},{"name":"Mikawa Island","ja":"三河島","lat":35.733383,"lng":139.777131},{"name":"Minami-senju","ja":"南千住","lat":35.734033,"lng":139.7994},{"name":"Kita Senju","ja":"北千住","lat":35.749677,"lng":139.804872},{"name":"Ayase","ja":"綾瀬","lat":35.762222,"lng":139.825019},{"name":"Kameari","ja":"亀有","lat":35.766527,"lng":139.847573},{"name":"Kanamachi","ja":"金町","lat":35.769582,"lng":139.870482},{"name":"Matsudo","ja":"松戸","lat":35.784472,"lng":139.900779},{"name":"Kita Matsudo","ja":"北松戸","lat":35.800459,"lng":139.911528},{"name":"Moribashi","ja":"馬橋","lat":35.811682,"lng":139.917305},{"name":"Shin-Matsudo","ja":"新松戸","lat":35.825467,"lng":139.921076},{"name":"Kita Kogane","ja":"北小金","lat":35.833436,"lng":139.931303},{"name":"South Kishi","ja":"南柏","lat":35.844655,"lng":139.954111},{"name":"oak","ja":"柏","lat":35.862316,"lng":139.971148},{"name":"Kitakami","ja":"北柏","lat":35.875623,"lng":139.988035},{"name":"Abiko","ja":"我孫子","lat":35.87279,"lng":140.010466},{"name":"Tenodai","ja":"天王台","lat":35.872558,"lng":140.04121},{"name":"Handle","ja":"取手","lat":35.89553,"lng":140.063004}]},{"id":11329,"name":"JR Kashima Line","ja":"JR鹿島線","color":"#65fdfa","circular":false,"stations":[{"name":"Sawara","ja":"佐原","lat":35.894522,"lng":140.494074},{"name":"Katori","ja":"香取","lat":35.897856,"lng":140.532367},{"name":"Twelve bridges","ja":"十二橋","lat":35.916984,"lng":140.545707},{"name":"Itinerary","ja":"潮来","lat":35.936904,"lng":140.549473},{"name":"Elongation","ja":"延方","lat":35.958072,"lng":140.58875},{"name":"Kashima Shrine","ja":"鹿島神宮","lat":35.970614,"lng":140.625676},{"name":"Kajima football stadium (clinic)","ja":"鹿島サッカースタジアム（臨）","lat":35.992707,"lng":140.63606}]},{"id":11339,"name":"JR Mito Line","ja":"JR水戸線","color":"#5dd8c5","circular":false,"stations":[{"name":"Oyama","ja":"小山","lat":36.312747,"lng":139.806241},{"name":"Odabayashi","ja":"小田林","lat":36.300775,"lng":139.85353},{"name":"Yuki","ja":"結城","lat":36.298056,"lng":139.873028},{"name":"Tozyou Castle","ja":"東結城","lat":36.296554,"lng":139.891485},{"name":"Kawashima","ja":"川島","lat":36.295918,"lng":139.916382},{"name":"Tamado","ja":"玉戸","lat":36.298547,"lng":139.93845},{"name":"Shimodate","ja":"下館","lat":36.304197,"lng":139.97866},{"name":"New term","ja":"新治","lat":36.328082,"lng":140.039076},{"name":"Yamato","ja":"大和","lat":36.345567,"lng":140.073216},{"name":"Iwase","ja":"岩瀬","lat":36.359377,"lng":140.108739},{"name":"Hagari","ja":"羽黒","lat":36.355292,"lng":140.142947},{"name":"Fukuhara","ja":"福原","lat":36.351507,"lng":140.187249},{"name":"Inada","ja":"稲田","lat":36.368903,"lng":140.21501},{"name":"Kasama","ja":"笠間","lat":36.373056,"lng":140.246515},{"name":"Shishido","ja":"宍戸","lat":36.344763,"lng":140.288243},{"name":"A friend","ja":"友部","lat":36.350597,"lng":140.306306}]},{"id":99309,"name":"Tsukuba Express","ja":"つくばエクスプレス","color":"#ec5a4f","circular":false,"stations":[{"name":"Akihabara","ja":"秋葉原","lat":35.698889,"lng":139.774273},{"name":"Shinokabacho","ja":"新御徒町","lat":35.707045,"lng":139.781958},{"name":"Asakusa","ja":"浅草","lat":35.713817,"lng":139.792389},{"name":"Minami-senju","ja":"南千住","lat":35.732413,"lng":139.798783},{"name":"Kita Senju","ja":"北千住","lat":35.74949,"lng":139.805092},{"name":"Aoi","ja":"青井","lat":35.771782,"lng":139.82038},{"name":"Rokucho","ja":"六町","lat":35.784963,"lng":139.821816},{"name":"Yashio","ja":"八潮","lat":35.807905,"lng":139.845017},{"name":"Misato center","ja":"三郷中央","lat":35.824514,"lng":139.878344},{"name":"Nankozan","ja":"南流山","lat":35.83869,"lng":139.903271},{"name":"Nayama Central Park","ja":"流山セントラルパーク","lat":35.854552,"lng":139.915223},{"name":"Mt. Nagareyama Ontaka Forest","ja":"流山おおたかの森","lat":35.871799,"lng":139.925044},{"name":"Kashiwanoha Campus","ja":"柏の葉キャンパス","lat":35.89308,"lng":139.952454},{"name":"Kashiwa Tanaka","ja":"柏たなか","lat":35.9109,"lng":139.957533},{"name":"Moriya","ja":"守谷","lat":35.950626,"lng":139.992209},{"name":"Mirai Plain","ja":"みらい平","lat":35.99514,"lng":140.038555},{"name":"Green","ja":"みどりの","lat":36.03025,"lng":140.056276},{"name":"Expo Memorial Park","ja":"万博記念公園","lat":36.05841,"lng":140.059256},{"name":"Research school","ja":"研究学園","lat":36.0821,"lng":140.082256},{"name":"Tsukuba","ja":"つくば","lat":36.0825,"lng":140.110604}]},{"id":99315,"name":"Hitachinaka Seaside Railway Minato Line","ja":"ひたちなか海浜鉄道湊線","color":"#cf5dcc","circular":false,"stations":[{"name":"Ajigaura","ja":"阿字ヶ浦","lat":36.383529,"lng":140.61244},{"name":"Isozaki","ja":"磯崎","lat":36.37781,"lng":140.617934},{"name":"Hiraiso","ja":"平磯","lat":36.357546,"lng":140.607575},{"name":"Honsenyama","ja":"殿山","lat":36.349497,"lng":140.601087},{"name":"Nakano Minato","ja":"那珂湊","lat":36.345453,"lng":140.587716},{"name":"Takada's iron bridge","ja":"高田の鉄橋","lat":36.352556,"lng":140.580028},{"name":"Nakane","ja":"中根","lat":36.367488,"lng":140.562138},{"name":"Kaname","ja":"金上","lat":36.382319,"lng":140.534132},{"name":"Nikkojima","ja":"日工前","lat":36.388099,"lng":140.524542},{"name":"Katsuta","ja":"勝田","lat":36.394033,"lng":140.524482}]},{"id":99318,"name":"Kanto Railway Jozan Line","ja":"関東鉄道常総線","color":"#546be2","circular":false,"stations":[{"name":"Handle","ja":"取手","lat":35.89553,"lng":140.063004},{"name":"West handle","ja":"西取手","lat":35.908584,"lng":140.059437},{"name":"Terahara","ja":"寺原","lat":35.911825,"lng":140.054551},{"name":"New beginning","ja":"新取手","lat":35.917657,"lng":140.0421},{"name":"Yumeno","ja":"ゆめみ野","lat":35.921129,"lng":140.034789},{"name":"Inagoi","ja":"稲戸井","lat":35.926142,"lng":140.02269},{"name":"Doorway","ja":"戸頭","lat":35.92951,"lng":140.014263},{"name":"Minami-guya","ja":"南守谷","lat":35.934224,"lng":140.00212},{"name":"Moriya","ja":"守谷","lat":35.950626,"lng":139.992209},{"name":"Shinobuya","ja":"新守谷","lat":35.966344,"lng":139.985864},{"name":"Small silk","ja":"小絹","lat":35.981151,"lng":139.983328},{"name":"Mizukaido","ja":"水海道","lat":36.017828,"lng":139.99137},{"name":"Kita Maido","ja":"北水海道","lat":36.032123,"lng":139.9928},{"name":"Wife","ja":"中妻","lat":36.047291,"lng":139.990714},{"name":"Three wives","ja":"三妻","lat":36.073507,"lng":139.983052},{"name":"Minami Stone","ja":"南石下","lat":36.102262,"lng":139.973938},{"name":"Stone","ja":"石下","lat":36.117041,"lng":139.974323},{"name":"Tamamura","ja":"玉村","lat":36.135499,"lng":139.969959},{"name":"Maido","ja":"宗道","lat":36.153589,"lng":139.970573},{"name":"Shimotsuma","ja":"下妻","lat":36.182325,"lng":139.964461},{"name":"Treasure","ja":"大宝","lat":36.203159,"lng":139.970193},{"name":"Tengno River","ja":"騰波ノ江","lat":36.223232,"lng":139.976274},{"name":"Kuroko","ja":"黒子","lat":36.247396,"lng":139.97514},{"name":"Ota Township","ja":"大田郷","lat":36.278258,"lng":139.959724},{"name":"Shimodate","ja":"下館","lat":36.303959,"lng":139.978268}]},{"id":99319,"name":"Kanto Railway Ryugasaki Line","ja":"関東鉄道竜ヶ崎線","color":"#526550","circular":false,"stations":[{"name":"Satoshi","ja":"佐貫","lat":35.929636,"lng":140.138292},{"name":"Entrance","ja":"入地","lat":35.91899,"lng":140.157266},{"name":"Ryugasaki","ja":"竜ヶ崎","lat":35.908586,"lng":140.178937}]},{"id":99323,"name":"Kashima Coastal Railroad Otorakekashima Line","ja":"鹿島臨海鉄道大洗鹿島線","color":"#4cd474","circular":false,"stations":[{"name":"Mito","ja":"水戸","lat":36.370911,"lng":140.47676},{"name":"Higashi Mito","ja":"東水戸","lat":36.361746,"lng":140.516012},{"name":"Normals","ja":"常澄","lat":36.340683,"lng":140.558997},{"name":"Oarai","ja":"大洗","lat":36.315342,"lng":140.562675},{"name":"Hakuuma","ja":"涸沼","lat":36.266054,"lng":140.527356},{"name":"Kashima Asahi","ja":"鹿島旭","lat":36.224658,"lng":140.512601},{"name":"Tokudaku","ja":"徳宿","lat":36.190356,"lng":140.514441},{"name":"Shinshida","ja":"新鉾田","lat":36.152697,"lng":140.520408},{"name":"Lake Kitaura","ja":"北浦湖畔","lat":36.120453,"lng":140.536841},{"name":"Ocean","ja":"大洋","lat":36.108341,"lng":140.576413},{"name":"Kashima-nada","ja":"鹿島灘","lat":36.075568,"lng":140.596789},{"name":"Kashima Ono","ja":"鹿島大野","lat":36.050674,"lng":140.609855},{"name":"Nagahama-gama Beach Ocean Front Hamanasu Park","ja":"長者ヶ浜潮騒はまなす公園前","lat":36.031336,"lng":140.618849},{"name":"Wilderness bed","ja":"荒野台","lat":36.016804,"lng":140.625194},{"name":"Kajima football stadium (clinic)","ja":"鹿島サッカースタジアム（臨）","lat":35.992707,"lng":140.63606},{"name":"Kashima Shrine","ja":"鹿島神宮","lat":35.970614,"lng":140.625676}]},{"id":99330,"name":"Moka Tetsudo Moka Line","ja":"真岡鐵道真岡線","color":"#d0d1e4","circular":false,"stations":[{"name":"Shimodate","ja":"下館","lat":36.304275,"lng":139.978582},{"name":"Shimokodenbaku","ja":"下館二高前","lat":36.319137,"lng":139.972193},{"name":"Folding book","ja":"折本","lat":36.340684,"lng":139.971232},{"name":"Higuchi","ja":"ひぐち","lat":36.357882,"lng":139.970057},{"name":"Kabuda","ja":"久下田","lat":36.37606,"lng":139.971756},{"name":"Terauchi","ja":"寺内","lat":36.410876,"lng":139.980077},{"name":"Moka","ja":"真岡","lat":36.439144,"lng":140.002632},{"name":"Kitaooka","ja":"北真岡","lat":36.44909,"lng":140.014061},{"name":"Nishidani","ja":"西田井","lat":36.453407,"lng":140.04876},{"name":"Kitayama","ja":"北山","lat":36.455665,"lng":140.067708},{"name":"Mashiko","ja":"益子","lat":36.462965,"lng":140.088526},{"name":"Nanai","ja":"七井","lat":36.491814,"lng":140.09439},{"name":"Tada Ra","ja":"多田羅","lat":36.515922,"lng":140.089795},{"name":"Shi","ja":"市塙","lat":36.538029,"lng":140.110218},{"name":"Sasayama","ja":"笹原田","lat":36.533911,"lng":140.144837},{"name":"Tenchiga","ja":"天矢場","lat":36.529292,"lng":140.156109},{"name":"Motegi","ja":"茂木","lat":36.530851,"lng":140.181382}]},{"id":11319,"name":"Utsunomiya Line","ja":"宇都宮線","color":"#40d46e","circular":false,"stations":[{"name":"Ueno","ja":"上野","lat":35.71379,"lng":139.777043},{"name":"Takeshi","ja":"尾久","lat":35.74683,"lng":139.753846},{"name":"Akabane","ja":"赤羽","lat":35.778026,"lng":139.720928},{"name":"Urawa","ja":"浦和","lat":35.858496,"lng":139.657109},{"name":"Saitama Shintoshin down center","ja":"さいたま新都心","lat":35.893867,"lng":139.633587},{"name":"Omiya","ja":"大宮","lat":35.906439,"lng":139.62405},{"name":"Touro","ja":"土呂","lat":35.931997,"lng":139.63214},{"name":"Higashi Omiya","ja":"東大宮","lat":35.948751,"lng":139.640291},{"name":"Hida","ja":"蓮田","lat":35.981272,"lng":139.653016},{"name":"Shiraoka","ja":"白岡","lat":36.01774,"lng":139.666826},{"name":"Shinbaoka","ja":"新白岡","lat":36.038732,"lng":139.67208},{"name":"Kuki","ja":"久喜","lat":36.065684,"lng":139.67727},{"name":"Eastern Washi Palace","ja":"東鷲宮","lat":36.089428,"lng":139.67913},{"name":"Kurihashi","ja":"栗橋","lat":36.136852,"lng":139.694177},{"name":"Furukawa","ja":"古河","lat":36.194375,"lng":139.709726},{"name":"A tree","ja":"野木","lat":36.229963,"lng":139.734729},{"name":"Zushida","ja":"間々田","lat":36.257907,"lng":139.761039},{"name":"Oyama","ja":"小山","lat":36.312747,"lng":139.806241},{"name":"Koganei","ja":"小金井","lat":36.374435,"lng":139.842232},{"name":"Self-governing doctor","ja":"自治医大","lat":36.39543,"lng":139.854524},{"name":"Ishibashi","ja":"石橋","lat":36.43651,"lng":139.866536},{"name":"A shogunyu","ja":"雀宮","lat":36.493845,"lng":139.876811},{"name":"Utsunomiya","ja":"宇都宮","lat":36.559246,"lng":139.898389},{"name":"Okamoto","ja":"岡本","lat":36.598182,"lng":139.944363},{"name":"Takamaruji","ja":"宝積寺","lat":36.631703,"lng":139.979487},{"name":"A family house","ja":"氏家","lat":36.681696,"lng":139.9621},{"name":"Kamisaka","ja":"蒲須坂","lat":36.720727,"lng":139.950461},{"name":"Kataoka","ja":"片岡","lat":36.754557,"lng":139.945665},{"name":"Pile sheet","ja":"矢板","lat":36.80655,"lng":139.932912},{"name":"Nozaki","ja":"野崎","lat":36.843722,"lng":139.957752},{"name":"Nishinasuno","ja":"西那須野","lat":36.883726,"lng":139.986383},{"name":"Nasushiobara","ja":"那須塩原","lat":36.931956,"lng":140.020694},{"name":"Kuroiso","ja":"黒磯","lat":36.970128,"lng":140.060204}]},{"id":11339,"name":"JR Mito Line","ja":"JR水戸線","color":"#5dd8c5","circular":false,"stations":[{"name":"Oyama","ja":"小山","lat":36.312747,"lng":139.806241},{"name":"Odabayashi","ja":"小田林","lat":36.300775,"lng":139.85353},{"name":"Yuki","ja":"結城","lat":36.298056,"lng":139.873028},{"name":"Tozyou Castle","ja":"東結城","lat":36.296554,"lng":139.891485},{"name":"Kawashima","ja":"川島","lat":36.295918,"lng":139.916382},{"name":"Tamado","ja":"玉戸","lat":36.298547,"lng":139.93845},{"name":"Shimodate","ja":"下館","lat":36.304197,"lng":139.97866},{"name":"New term","ja":"新治","lat":36.328082,"lng":140.039076},{"name":"Yamato","ja":"大和","lat":36.345567,"lng":140.073216},{"name":"Iwase","ja":"岩瀬","lat":36.359377,"lng":140.108739},{"name":"Hagari","ja":"羽黒","lat":36.355292,"lng":140.142947},{"name":"Fukuhara","ja":"福原","lat":36.351507,"lng":140.187249},{"name":"Inada","ja":"稲田","lat":36.368903,"lng":140.21501},{"name":"Kasama","ja":"笠間","lat":36.373056,"lng":140.246515},{"name":"Shishido","ja":"宍戸","lat":36.344763,"lng":140.288243},{"name":"A friend","ja":"友部","lat":36.350597,"lng":140.306306}]},{"id":11341,"name":"JR double capital line","ja":"JR両毛線","color":"#eff0c3","circular":false,"stations":[{"name":"Takasaki","ja":"高崎","lat":36.322239,"lng":139.012354},{"name":"Takasaki wholesaler","ja":"高崎問屋町","lat":36.346097,"lng":139.017089},{"name":"Ino","ja":"井野","lat":36.357457,"lng":139.023247},{"name":"Shinmaebashi","ja":"新前橋","lat":36.378936,"lng":139.046924},{"name":"Maebashi","ja":"前橋","lat":36.383399,"lng":139.072833},{"name":"Maebasu Oshima","ja":"前橋大島","lat":36.370585,"lng":139.109557},{"name":"Komagata","ja":"駒形","lat":36.354145,"lng":139.139483},{"name":"Isezaki","ja":"伊勢崎","lat":36.326849,"lng":139.193704},{"name":"National","ja":"国定","lat":36.359018,"lng":139.242463},{"name":"Iwasaki","ja":"岩宿","lat":36.395861,"lng":139.297058},{"name":"Kiryu","ja":"桐生","lat":36.41109,"lng":139.33319},{"name":"Omata","ja":"小俣","lat":36.37496,"lng":139.374416},{"name":"Mountain front","ja":"山前","lat":36.347369,"lng":139.411322},{"name":"Ashikaga","ja":"足利","lat":36.331888,"lng":139.456295},{"name":"Tomita","ja":"富田","lat":36.316209,"lng":139.52865},{"name":"Sano","ja":"佐野","lat":36.316668,"lng":139.578858},{"name":"Iwane","ja":"岩舟","lat":36.326561,"lng":139.657955},{"name":"Ohirashita","ja":"大平下","lat":36.344315,"lng":139.697264},{"name":"Tochigi","ja":"栃木","lat":36.371912,"lng":139.731037},{"name":"Thinking river","ja":"思川","lat":36.351044,"lng":139.781079},{"name":"Oyama","ja":"小山","lat":36.312747,"lng":139.806241}]},{"id":21002,"name":"Tobu Isesaki Line","ja":"東武伊勢崎線","color":"#003087","circular":false,"stations":[{"name":"Asakusa","ja":"浅草","lat":35.711883,"lng":139.798214},{"name":"Tokyo Sky Tree","ja":"とうきょうスカイツリー","lat":35.71043,"lng":139.809332},{"name":"Oshigami <before sky tree>","ja":"押上〈スカイツリー前〉","lat":35.710702,"lng":139.812935},{"name":"A ship","ja":"曳舟","lat":35.718418,"lng":139.816634},{"name":"Higashi-jima","ja":"東向島","lat":35.724324,"lng":139.819306},{"name":"Kaneguchi","ja":"鐘ヶ淵","lat":35.733712,"lng":139.820344},{"name":"Horikiri","ja":"堀切","lat":35.742977,"lng":139.817727},{"name":"Ushida","ja":"牛田","lat":35.744555,"lng":139.811816},{"name":"Kita Senju","ja":"北千住","lat":35.749891,"lng":139.805564},{"name":"Kosuge","ja":"小菅","lat":35.759039,"lng":139.812935},{"name":"Gomono","ja":"五反野","lat":35.765852,"lng":139.809643},{"name":"Umejima","ja":"梅島","lat":35.772437,"lng":139.797916},{"name":"Nishiarai","ja":"西新井","lat":35.777323,"lng":139.790372},{"name":"Takenotsuka","ja":"竹ノ塚","lat":35.794368,"lng":139.790788},{"name":"Yatsuka","ja":"谷塚","lat":35.814926,"lng":139.801483},{"name":"Soka","ja":"草加","lat":35.828476,"lng":139.803397},{"name":"Dokkyo University Front Station <Soka Matsubara>","ja":"獨協大学前駅〈草加松原〉","lat":35.84333,"lng":139.800622},{"name":"Nitta","ja":"新田","lat":35.854086,"lng":139.795391},{"name":"Gamo","ja":"蒲生","lat":35.866851,"lng":139.791686},{"name":"Shin-Etsuya","ja":"新越谷","lat":35.875186,"lng":139.789905},{"name":"Koshigaya","ja":"越谷","lat":35.887529,"lng":139.786213},{"name":"Hokuseikaya","ja":"北越谷","lat":35.901724,"lng":139.780008},{"name":"A large bag","ja":"大袋","lat":35.92437,"lng":139.777868},{"name":"Sliding table","ja":"せんげん台","lat":35.935832,"lng":139.774478},{"name":"Takei","ja":"武里","lat":35.949102,"lng":139.770675},{"name":"Ichinobi","ja":"一ノ割","lat":35.96412,"lng":139.766219},{"name":"Kasukabe","ja":"春日部","lat":35.980095,"lng":139.752345},{"name":"Kita-san","ja":"北春日部","lat":35.990655,"lng":139.744012},{"name":"Himamiya","ja":"姫宮","lat":36.004384,"lng":139.738674},{"name":"Tobudobukoen","ja":"東武動物公園","lat":36.024604,"lng":139.726901},{"name":"Wato","ja":"和戸","lat":36.039562,"lng":139.701156},{"name":"Kuki","ja":"久喜","lat":36.065684,"lng":139.67727},{"name":"Washimiya","ja":"鷲宮","lat":36.09626,"lng":139.656945},{"name":"Hanazaki","ja":"花崎","lat":36.109891,"lng":139.633522},{"name":"Kazu","ja":"加須","lat":36.122992,"lng":139.595584},{"name":"Minami Hanyu","ja":"南羽生","lat":36.14959,"lng":139.55696},{"name":"Hanyi","ja":"羽生","lat":36.170345,"lng":139.533949},{"name":"Kawamata","ja":"川俣","lat":36.208778,"lng":139.52652},{"name":"Maolin-senmae","ja":"茂林寺前","lat":36.226331,"lng":139.527058},{"name":"Tatebayashi","ja":"館林","lat":36.246606,"lng":139.527811},{"name":"Many people","ja":"多々良","lat":36.273732,"lng":139.500179},{"name":"Prefecture","ja":"県","lat":36.290615,"lng":139.472336},{"name":"Fukui","ja":"福居","lat":36.305208,"lng":139.458634},{"name":"Tobu Izumi","ja":"東武和泉","lat":36.315595,"lng":139.45509},{"name":"Ashikaga","ja":"足利市","lat":36.32948,"lng":139.448113},{"name":"Nozō Yamabe","ja":"野州山辺","lat":36.32633,"lng":139.431981},{"name":"Rukawa","ja":"韮川","lat":36.307913,"lng":139.401704},{"name":"Ota","ja":"太田","lat":36.294228,"lng":139.378779},{"name":"Hosotani","ja":"細谷","lat":36.282523,"lng":139.348509},{"name":"Kisaki","ja":"木崎","lat":36.271393,"lng":139.312988},{"name":"Saiga","ja":"世良田","lat":36.272931,"lng":139.282038},{"name":"Saikyo","ja":"境町","lat":36.277191,"lng":139.256177},{"name":"Tsuyoshi","ja":"剛志","lat":36.295428,"lng":139.223792},{"name":"New Isezaki","ja":"新伊勢崎","lat":36.318052,"lng":139.201816},{"name":"Isezaki","ja":"伊勢崎","lat":36.326622,"lng":139.194559}]},{"id":21003,"name":"Tobu Nikko Line","ja":"東武日光線","color":"#003087","circular":false,"stations":[{"name":"Tobudobukoen","ja":"東武動物公園","lat":36.024604,"lng":139.726901},{"name":"Sugito Takanojidai","ja":"杉戸高野台","lat":36.051536,"lng":139.714582},{"name":"Sachio","ja":"幸手","lat":36.074297,"lng":139.714937},{"name":"Minami Kuribashi Bridge","ja":"南栗橋","lat":36.113157,"lng":139.713004},{"name":"Kurihashi","ja":"栗橋","lat":36.137034,"lng":139.693855},{"name":"Shin Furukawa","ja":"新古河","lat":36.192686,"lng":139.686904},{"name":"Yagyu","ja":"柳生","lat":36.206756,"lng":139.659645},{"name":"Itakura Toyo University","ja":"板倉東洋大前","lat":36.222404,"lng":139.648493},{"name":"Fujioka","ja":"藤岡","lat":36.255628,"lng":139.64555},{"name":"Quiet","ja":"静和","lat":36.31651,"lng":139.684864},{"name":"Shin Ohirashita","ja":"新大平下","lat":36.339024,"lng":139.701886},{"name":"Tochigi","ja":"栃木","lat":36.371912,"lng":139.731037},{"name":"New Tochigi","ja":"新栃木","lat":36.390149,"lng":139.742308},{"name":"Battlefield","ja":"合戦場","lat":36.407647,"lng":139.741057},{"name":"Whole house","ja":"家中","lat":36.429783,"lng":139.747344},{"name":"Tobu Kanzaki","ja":"東武金崎","lat":36.466288,"lng":139.749468},{"name":"Nagi","ja":"楡木","lat":36.507497,"lng":139.745164},{"name":"Yezan","ja":"樅山","lat":36.532667,"lng":139.741875},{"name":"Shin Kanuma","ja":"新鹿沼","lat":36.556998,"lng":139.74478},{"name":"North Kanuma","ja":"北鹿沼","lat":36.580811,"lng":139.737646},{"name":"Plate","ja":"板荷","lat":36.619476,"lng":139.707739},{"name":"Lower fee","ja":"下小代","lat":36.651303,"lng":139.713849},{"name":"Myojin","ja":"明神","lat":36.676566,"lng":139.712301},{"name":"Kotoka","ja":"下今市","lat":36.72563,"lng":139.692666},{"name":"Kamiseichi","ja":"上今市","lat":36.727962,"lng":139.681026},{"name":"Tobu Nikko","ja":"東武日光","lat":36.748233,"lng":139.61975}]},{"id":21008,"name":"Tobu Utsunomiya Line","ja":"東武宇都宮線","color":"#003087","circular":false,"stations":[{"name":"Tochigi","ja":"栃木","lat":36.371912,"lng":139.731037},{"name":"New Tochigi","ja":"新栃木","lat":36.390149,"lng":139.742308},{"name":"Nozō Hirakawa","ja":"野州平川","lat":36.401554,"lng":139.753764},{"name":"Nosyu Otsuka","ja":"野州大塚","lat":36.408759,"lng":139.772574},{"name":"Mibu","ja":"壬生","lat":36.422472,"lng":139.80496},{"name":"Kunitani","ja":"国谷","lat":36.451442,"lng":139.823824},{"name":"Toy tomb","ja":"おもちゃのまち","lat":36.466774,"lng":139.829506},{"name":"Yasuka","ja":"安塚","lat":36.485678,"lng":139.835572},{"name":"Nishikawada","ja":"西川田","lat":36.514227,"lng":139.850247},{"name":"Enoshima","ja":"江曽島","lat":36.530951,"lng":139.860818},{"name":"Minami Utsunomiya","ja":"南宇都宮","lat":36.543783,"lng":139.872017},{"name":"Tobu Utsunomiya","ja":"東武宇都宮","lat":36.559373,"lng":139.880427}]},{"id":21010,"name":"Tobu Sano Line","ja":"東武佐野線","color":"#003087","circular":false,"stations":[{"name":"Tatebayashi","ja":"館林","lat":36.246606,"lng":139.527811},{"name":"Watase","ja":"渡瀬","lat":36.261807,"lng":139.537515},{"name":"Tajima","ja":"田島","lat":36.290229,"lng":139.564943},{"name":"Sano","ja":"佐野市","lat":36.306153,"lng":139.57583},{"name":"Sano","ja":"佐野","lat":36.316884,"lng":139.578826},{"name":"Horse rice","ja":"堀米","lat":36.328467,"lng":139.580279},{"name":"Yoshimizu","ja":"吉水","lat":36.345621,"lng":139.579337},{"name":"Tanuma","ja":"田沼","lat":36.367094,"lng":139.581919},{"name":"Tada","ja":"多田","lat":36.37809,"lng":139.592984},{"name":"Kuzuo","ja":"葛生","lat":36.397937,"lng":139.609207}]},{"id":99330,"name":"Moka Tetsudo Moka Line","ja":"真岡鐵道真岡線","color":"#d0d1e4","circular":false,"stations":[{"name":"Shimodate","ja":"下館","lat":36.304275,"lng":139.978582},{"name":"Shimokodenbaku","ja":"下館二高前","lat":36.319137,"lng":139.972193},{"name":"Folding book","ja":"折本","lat":36.340684,"lng":139.971232},{"name":"Higuchi","ja":"ひぐち","lat":36.357882,"lng":139.970057},{"name":"Kabuda","ja":"久下田","lat":36.37606,"lng":139.971756},{"name":"Terauchi","ja":"寺内","lat":36.410876,"lng":139.980077},{"name":"Moka","ja":"真岡","lat":36.439144,"lng":140.002632},{"name":"Kitaooka","ja":"北真岡","lat":36.44909,"lng":140.014061},{"name":"Nishidani","ja":"西田井","lat":36.453407,"lng":140.04876},{"name":"Kitayama","ja":"北山","lat":36.455665,"lng":140.067708},{"name":"Mashiko","ja":"益子","lat":36.462965,"lng":140.088526},{"name":"Nanai","ja":"七井","lat":36.491814,"lng":140.09439},{"name":"Tada Ra","ja":"多田羅","lat":36.515922,"lng":140.089795},{"name":"Shi","ja":"市塙","lat":36.538029,"lng":140.110218},{"name":"Sasayama","ja":"笹原田","lat":36.533911,"lng":140.144837},{"name":"Tenchiga","ja":"天矢場","lat":36.529292,"lng":140.156109},{"name":"Motegi","ja":"茂木","lat":36.530851,"lng":140.181382}]},{"id":11318,"name":"JR Hachiaki Line (Takamado River - Takasaki)","ja":"JR八高線(高麗川～高崎)","color":"#585365","circular":false,"stations":[{"name":"Koryo River","ja":"高麗川","lat":35.896328,"lng":139.33809},{"name":"Moro","ja":"毛呂","lat":35.940806,"lng":139.309237},{"name":"Yoshigatsu","ja":"越生","lat":35.962559,"lng":139.299437},{"name":"Mental sensation","ja":"明覚","lat":36.003309,"lng":139.288789},{"name":"Ogawamachi","ja":"小川町","lat":36.05903,"lng":139.260412},{"name":"Takezawa","ja":"竹沢","lat":36.075466,"lng":139.229952},{"name":"Orihara","ja":"折原","lat":36.096296,"lng":139.195205},{"name":"Lodging","ja":"寄居","lat":36.118013,"lng":139.194224},{"name":"Soil","ja":"用土","lat":36.153858,"lng":139.200758},{"name":"Matsuhisa","ja":"松久","lat":36.172938,"lng":139.182127},{"name":"Kodama","ja":"児玉","lat":36.192624,"lng":139.13582},{"name":"Tanso","ja":"丹荘","lat":36.216668,"lng":139.102306},{"name":"Gunma Oka","ja":"群馬藤岡","lat":36.250336,"lng":139.08338},{"name":"Kita Tanoka","ja":"北藤岡","lat":36.282469,"lng":139.080779},{"name":"Kurano","ja":"倉賀野","lat":36.300216,"lng":139.049474},{"name":"Takasaki","ja":"高崎","lat":36.322239,"lng":139.012354}]},{"id":11323,"name":"JR Takasaki Line","ja":"JR高崎線","color":"#424d6d","circular":false,"stations":[{"name":"Ueno","ja":"上野","lat":35.71379,"lng":139.777043},{"name":"Takeshi","ja":"尾久","lat":35.74683,"lng":139.753846},{"name":"Akabane","ja":"赤羽","lat":35.778026,"lng":139.720928},{"name":"Urawa","ja":"浦和","lat":35.858496,"lng":139.657109},{"name":"Saitama Shintoshin down center","ja":"さいたま新都心","lat":35.893867,"lng":139.633587},{"name":"Omiya","ja":"大宮","lat":35.906439,"lng":139.62405},{"name":"Miyahara","ja":"宮原","lat":35.940256,"lng":139.609455},{"name":"Ageo","ja":"上尾","lat":35.973522,"lng":139.588434},{"name":"Kitagamio","ja":"北上尾","lat":35.985632,"lng":139.577223},{"name":"Okugawa","ja":"桶川","lat":35.998375,"lng":139.564274},{"name":"Kitamoto","ja":"北本","lat":36.032112,"lng":139.533591},{"name":"Konosu","ja":"鴻巣","lat":36.0592,"lng":139.509552},{"name":"Kitakozuka","ja":"北鴻巣","lat":36.085529,"lng":139.476894},{"name":"Fukiage","ja":"吹上","lat":36.103062,"lng":139.45312},{"name":"Gyoda","ja":"行田","lat":36.113879,"lng":139.432103},{"name":"Kumagaya","ja":"熊谷","lat":36.139627,"lng":139.389528},{"name":"Kabohara","ja":"籠原","lat":36.17448,"lng":139.330199},{"name":"Fukaya","ja":"深谷","lat":36.191344,"lng":139.28127},{"name":"Okabe","ja":"岡部","lat":36.205645,"lng":139.237622},{"name":"Honjo","ja":"本庄","lat":36.236229,"lng":139.188299},{"name":"Jinbohara","ja":"神保原","lat":36.25359,"lng":139.149172},{"name":"Shinmachi","ja":"新町","lat":36.272984,"lng":139.105457},{"name":"Kurano","ja":"倉賀野","lat":36.300216,"lng":139.049474},{"name":"Takasaki","ja":"高崎","lat":36.322239,"lng":139.012354}]},{"id":11337,"name":"JR Shinetsu main line","ja":"JR信越本線","color":"#f2e6de","circular":false,"stations":[{"name":"Takasaki","ja":"高崎","lat":36.322239,"lng":139.012354},{"name":"Kita Takazaki","ja":"北高崎","lat":36.338791,"lng":139.001076},{"name":"Gunma Hachiman","ja":"群馬八幡","lat":36.337641,"lng":138.957433},{"name":"Anxiety","ja":"安中","lat":36.331657,"lng":138.914368},{"name":"Isobe","ja":"磯部","lat":36.298397,"lng":138.84965},{"name":"Matsudo","ja":"松井田","lat":36.309151,"lng":138.797705},{"name":"Nishi Matsuda","ja":"西松井田","lat":36.316067,"lng":138.786675},{"name":"Yokokawa","ja":"横川","lat":36.336009,"lng":138.737926}]},{"id":11341,"name":"JR double capital line","ja":"JR両毛線","color":"#eff0c3","circular":false,"stations":[{"name":"Takasaki","ja":"高崎","lat":36.322239,"lng":139.012354},{"name":"Takasaki wholesaler","ja":"高崎問屋町","lat":36.346097,"lng":139.017089},{"name":"Ino","ja":"井野","lat":36.357457,"lng":139.023247},{"name":"Shinmaebashi","ja":"新前橋","lat":36.378936,"lng":139.046924},{"name":"Maebashi","ja":"前橋","lat":36.383399,"lng":139.072833},{"name":"Maebasu Oshima","ja":"前橋大島","lat":36.370585,"lng":139.109557},{"name":"Komagata","ja":"駒形","lat":36.354145,"lng":139.139483},{"name":"Isezaki","ja":"伊勢崎","lat":36.326849,"lng":139.193704},{"name":"National","ja":"国定","lat":36.359018,"lng":139.242463},{"name":"Iwasaki","ja":"岩宿","lat":36.395861,"lng":139.297058},{"name":"Kiryu","ja":"桐生","lat":36.41109,"lng":139.33319},{"name":"Omata","ja":"小俣","lat":36.37496,"lng":139.374416},{"name":"Mountain front","ja":"山前","lat":36.347369,"lng":139.411322},{"name":"Ashikaga","ja":"足利","lat":36.331888,"lng":139.456295},{"name":"Tomita","ja":"富田","lat":36.316209,"lng":139.52865},{"name":"Sano","ja":"佐野","lat":36.316668,"lng":139.578858},{"name":"Iwane","ja":"岩舟","lat":36.326561,"lng":139.657955},{"name":"Ohirashita","ja":"大平下","lat":36.344315,"lng":139.697264},{"name":"Tochigi","ja":"栃木","lat":36.371912,"lng":139.731037},{"name":"Thinking river","ja":"思川","lat":36.351044,"lng":139.781079},{"name":"Oyama","ja":"小山","lat":36.312747,"lng":139.806241}]},{"id":21002,"name":"Tobu Isesaki Line","ja":"東武伊勢崎線","color":"#003087","circular":false,"stations":[{"name":"Asakusa","ja":"浅草","lat":35.711883,"lng":139.798214},{"name":"Tokyo Sky Tree","ja":"とうきょうスカイツリー","lat":35.71043,"lng":139.809332},{"name":"Oshigami <before sky tree>","ja":"押上〈スカイツリー前〉","lat":35.710702,"lng":139.812935},{"name":"A ship","ja":"曳舟","lat":35.718418,"lng":139.816634},{"name":"Higashi-jima","ja":"東向島","lat":35.724324,"lng":139.819306},{"name":"Kaneguchi","ja":"鐘ヶ淵","lat":35.733712,"lng":139.820344},{"name":"Horikiri","ja":"堀切","lat":35.742977,"lng":139.817727},{"name":"Ushida","ja":"牛田","lat":35.744555,"lng":139.811816},{"name":"Kita Senju","ja":"北千住","lat":35.749891,"lng":139.805564},{"name":"Kosuge","ja":"小菅","lat":35.759039,"lng":139.812935},{"name":"Gomono","ja":"五反野","lat":35.765852,"lng":139.809643},{"name":"Umejima","ja":"梅島","lat":35.772437,"lng":139.797916},{"name":"Nishiarai","ja":"西新井","lat":35.777323,"lng":139.790372},{"name":"Takenotsuka","ja":"竹ノ塚","lat":35.794368,"lng":139.790788},{"name":"Yatsuka","ja":"谷塚","lat":35.814926,"lng":139.801483},{"name":"Soka","ja":"草加","lat":35.828476,"lng":139.803397},{"name":"Dokkyo University Front Station <Soka Matsubara>","ja":"獨協大学前駅〈草加松原〉","lat":35.84333,"lng":139.800622},{"name":"Nitta","ja":"新田","lat":35.854086,"lng":139.795391},{"name":"Gamo","ja":"蒲生","lat":35.866851,"lng":139.791686},{"name":"Shin-Etsuya","ja":"新越谷","lat":35.875186,"lng":139.789905},{"name":"Koshigaya","ja":"越谷","lat":35.887529,"lng":139.786213},{"name":"Hokuseikaya","ja":"北越谷","lat":35.901724,"lng":139.780008},{"name":"A large bag","ja":"大袋","lat":35.92437,"lng":139.777868},{"name":"Sliding table","ja":"せんげん台","lat":35.935832,"lng":139.774478},{"name":"Takei","ja":"武里","lat":35.949102,"lng":139.770675},{"name":"Ichinobi","ja":"一ノ割","lat":35.96412,"lng":139.766219},{"name":"Kasukabe","ja":"春日部","lat":35.980095,"lng":139.752345},{"name":"Kita-san","ja":"北春日部","lat":35.990655,"lng":139.744012},{"name":"Himamiya","ja":"姫宮","lat":36.004384,"lng":139.738674},{"name":"Tobudobukoen","ja":"東武動物公園","lat":36.024604,"lng":139.726901},{"name":"Wato","ja":"和戸","lat":36.039562,"lng":139.701156},{"name":"Kuki","ja":"久喜","lat":36.065684,"lng":139.67727},{"name":"Washimiya","ja":"鷲宮","lat":36.09626,"lng":139.656945},{"name":"Hanazaki","ja":"花崎","lat":36.109891,"lng":139.633522},{"name":"Kazu","ja":"加須","lat":36.122992,"lng":139.595584},{"name":"Minami Hanyu","ja":"南羽生","lat":36.14959,"lng":139.55696},{"name":"Hanyi","ja":"羽生","lat":36.170345,"lng":139.533949},{"name":"Kawamata","ja":"川俣","lat":36.208778,"lng":139.52652},{"name":"Maolin-senmae","ja":"茂林寺前","lat":36.226331,"lng":139.527058},{"name":"Tatebayashi","ja":"館林","lat":36.246606,"lng":139.527811},{"name":"Many people","ja":"多々良","lat":36.273732,"lng":139.500179},{"name":"Prefecture","ja":"県","lat":36.290615,"lng":139.472336},{"name":"Fukui","ja":"福居","lat":36.305208,"lng":139.458634},{"name":"Tobu Izumi","ja":"東武和泉","lat":36.315595,"lng":139.45509},{"name":"Ashikaga","ja":"足利市","lat":36.32948,"lng":139.448113},{"name":"Nozō Yamabe","ja":"野州山辺","lat":36.32633,"lng":139.431981},{"name":"Rukawa","ja":"韮川","lat":36.307913,"lng":139.401704},{"name":"Ota","ja":"太田","lat":36.294228,"lng":139.378779},{"name":"Hosotani","ja":"細谷","lat":36.282523,"lng":139.348509},{"name":"Kisaki","ja":"木崎","lat":36.271393,"lng":139.312988},{"name":"Saiga","ja":"世良田","lat":36.272931,"lng":139.282038},{"name":"Saikyo","ja":"境町","lat":36.277191,"lng":139.256177},{"name":"Tsuyoshi","ja":"剛志","lat":36.295428,"lng":139.223792},{"name":"New Isezaki","ja":"新伊勢崎","lat":36.318052,"lng":139.201816},{"name":"Isezaki","ja":"伊勢崎","lat":36.326622,"lng":139.194559}]},{"id":21003,"name":"Tobu Nikko Line","ja":"東武日光線","color":"#003087","circular":false,"stations":[{"name":"Tobudobukoen","ja":"東武動物公園","lat":36.024604,"lng":139.726901},{"name":"Sugito Takanojidai","ja":"杉戸高野台","lat":36.051536,"lng":139.714582},{"name":"Sachio","ja":"幸手","lat":36.074297,"lng":139.714937},{"name":"Minami Kuribashi Bridge","ja":"南栗橋","lat":36.113157,"lng":139.713004},{"name":"Kurihashi","ja":"栗橋","lat":36.137034,"lng":139.693855},{"name":"Shin Furukawa","ja":"新古河","lat":36.192686,"lng":139.686904},{"name":"Yagyu","ja":"柳生","lat":36.206756,"lng":139.659645},{"name":"Itakura Toyo University","ja":"板倉東洋大前","lat":36.222404,"lng":139.648493},{"name":"Fujioka","ja":"藤岡","lat":36.255628,"lng":139.64555},{"name":"Quiet","ja":"静和","lat":36.31651,"lng":139.684864},{"name":"Shin Ohirashita","ja":"新大平下","lat":36.339024,"lng":139.701886},{"name":"Tochigi","ja":"栃木","lat":36.371912,"lng":139.731037},{"name":"New Tochigi","ja":"新栃木","lat":36.390149,"lng":139.742308},{"name":"Battlefield","ja":"合戦場","lat":36.407647,"lng":139.741057},{"name":"Whole house","ja":"家中","lat":36.429783,"lng":139.747344},{"name":"Tobu Kanzaki","ja":"東武金崎","lat":36.466288,"lng":139.749468},{"name":"Nagi","ja":"楡木","lat":36.507497,"lng":139.745164},{"name":"Yezan","ja":"樅山","lat":36.532667,"lng":139.741875},{"name":"Shin Kanuma","ja":"新鹿沼","lat":36.556998,"lng":139.74478},{"name":"North Kanuma","ja":"北鹿沼","lat":36.580811,"lng":139.737646},{"name":"Plate","ja":"板荷","lat":36.619476,"lng":139.707739},{"name":"Lower fee","ja":"下小代","lat":36.651303,"lng":139.713849},{"name":"Myojin","ja":"明神","lat":36.676566,"lng":139.712301},{"name":"Kotoka","ja":"下今市","lat":36.72563,"lng":139.692666},{"name":"Kamiseichi","ja":"上今市","lat":36.727962,"lng":139.681026},{"name":"Tobu Nikko","ja":"東武日光","lat":36.748233,"lng":139.61975}]},{"id":21010,"name":"Tobu Sano Line","ja":"東武佐野線","color":"#003087","circular":false,"stations":[{"name":"Tatebayashi","ja":"館林","lat":36.246606,"lng":139.527811},{"name":"Watase","ja":"渡瀬","lat":36.261807,"lng":139.537515},{"name":"Tajima","ja":"田島","lat":36.290229,"lng":139.564943},{"name":"Sano","ja":"佐野市","lat":36.306153,"lng":139.57583},{"name":"Sano","ja":"佐野","lat":36.316884,"lng":139.578826},{"name":"Horse rice","ja":"堀米","lat":36.328467,"lng":139.580279},{"name":"Yoshimizu","ja":"吉水","lat":36.345621,"lng":139.579337},{"name":"Tanuma","ja":"田沼","lat":36.367094,"lng":139.581919},{"name":"Tada","ja":"多田","lat":36.37809,"lng":139.592984},{"name":"Kuzuo","ja":"葛生","lat":36.397937,"lng":139.609207}]},{"id":21011,"name":"Tobu Kiryu Line","ja":"東武桐生線","color":"#003087","circular":false,"stations":[{"name":"Ota","ja":"太田","lat":36.294228,"lng":139.378779},{"name":"Mi-bashi","ja":"三枚橋","lat":36.313369,"lng":139.354938},{"name":"Kari-Gatebashi","ja":"治良門橋","lat":36.333039,"lng":139.341328},{"name":"Yabukazuka","ja":"藪塚","lat":36.358737,"lng":139.315737},{"name":"Mr. Atsumi","ja":"阿左美","lat":36.385065,"lng":139.306465},{"name":"Shin Kiryu","ja":"新桐生","lat":36.39505,"lng":139.320078},{"name":"The age","ja":"相老","lat":36.410261,"lng":139.304178},{"name":"Akagi","ja":"赤城","lat":36.425615,"lng":139.276784}]},{"id":21012,"name":"Tobu Koizumi line","ja":"東武小泉線","color":"#003087","circular":false,"stations":[{"name":"Tatebayashi","ja":"館林","lat":36.246606,"lng":139.527811},{"name":"Narashima","ja":"成島","lat":36.249171,"lng":139.505682},{"name":"Nakano","ja":"本中野","lat":36.25843,"lng":139.469546},{"name":"Shinozuka","ja":"篠塚","lat":36.256788,"lng":139.446077},{"name":"Higashiizumi","ja":"東小泉","lat":36.259696,"lng":139.428456},{"name":"Koizumi","ja":"小泉町","lat":36.261562,"lng":139.42021},{"name":"Nishioizumi","ja":"西小泉","lat":36.258712,"lng":139.408525},{"name":"Ota","ja":"太田","lat":36.294228,"lng":139.378779},{"name":"Ryuko","ja":"竜舞","lat":36.278894,"lng":139.409002}]},{"id":99327,"name":"Joshin Electric Railway","ja":"上信電鉄","color":"#f456fb","circular":false,"stations":[{"name":"Takasaki","ja":"高崎","lat":36.320826,"lng":139.012225},{"name":"Minami Takasaki","ja":"南高崎","lat":36.31247,"lng":139.012315},{"name":"Sano's me","ja":"佐野のわたし","lat":36.302389,"lng":139.018139},{"name":"A base store","ja":"根小屋","lat":36.291114,"lng":139.019177},{"name":"Takasaki commerce college front","ja":"高崎商科大学前","lat":36.284295,"lng":139.029654},{"name":"Mountain name","ja":"山名","lat":36.277587,"lng":139.038098},{"name":"Nishiyama name","ja":"西山名","lat":36.270841,"lng":139.032046},{"name":"Horse court","ja":"馬庭","lat":36.261428,"lng":139.009321},{"name":"Yoshii","ja":"吉井","lat":36.256036,"lng":138.984418},{"name":"Nishiyoshii","ja":"西吉井","lat":36.255753,"lng":138.965914},{"name":"Shinshinsen","ja":"上州新屋","lat":36.256036,"lng":138.951776},{"name":"Shimocho Fukushima","ja":"上州福島","lat":36.256408,"lng":138.92944},{"name":"Higashi Mioka","ja":"東富岡","lat":36.260816,"lng":138.901898},{"name":"Shimochi Mioka","ja":"上州富岡","lat":36.26046,"lng":138.891851},{"name":"Nishi Mioka","ja":"西富岡","lat":36.260182,"lng":138.882786},{"name":"Shichuzen city","ja":"上州七日市","lat":36.258666,"lng":138.874536},{"name":"Shingu Ichinomiya","ja":"上州一ノ宮","lat":36.253053,"lng":138.863924},{"name":"Shrine farmland","ja":"神農原","lat":36.242629,"lng":138.843835},{"name":"Minamiakai","ja":"南蛇井","lat":36.23826,"lng":138.813838},{"name":"Chihira","ja":"千平","lat":36.230021,"lng":138.798543},{"name":"Shimoda","ja":"下仁田","lat":36.210484,"lng":138.786681}]},{"id":99328,"name":"Upper bristle electric railway cap line","ja":"上毛電気鉄道上毛線","color":"#5cc5fd","circular":false,"stations":[{"name":"Central Maebashi","ja":"中央前橋","lat":36.390915,"lng":139.07531},{"name":"Joto","ja":"城東","lat":36.391212,"lng":139.081124},{"name":"Three-tier","ja":"三俣","lat":36.393748,"lng":139.089192},{"name":"Cantalus","ja":"片貝","lat":36.393982,"lng":139.095597},{"name":"Koizumi","ja":"上泉","lat":36.39419,"lng":139.106598},{"name":"Akasaka","ja":"赤坂","lat":36.39721,"lng":139.117324},{"name":"Cardiovascular Center","ja":"心臓血管センター","lat":36.40559,"lng":139.129614},{"name":"Egi","ja":"江木","lat":36.407209,"lng":139.133391},{"name":"Taegu","ja":"大胡","lat":36.412673,"lng":139.156263},{"name":"Hidetoshi","ja":"樋越","lat":36.415459,"lng":139.173308},{"name":"Kitahara","ja":"北原","lat":36.413681,"lng":139.184604},{"name":"A shop","ja":"新屋","lat":36.413704,"lng":139.19657},{"name":"Kasukawa","ja":"粕川","lat":36.416818,"lng":139.210943},{"name":"Meal","ja":"膳","lat":36.416821,"lng":139.22197},{"name":"Xinli","ja":"新里","lat":36.418543,"lng":139.236949},{"name":"Shinkawa","ja":"新川","lat":36.418288,"lng":139.257536},{"name":"Higashishinagawa","ja":"東新川","lat":36.422002,"lng":139.267591},{"name":"Akagi","ja":"赤城","lat":36.425615,"lng":139.276784},{"name":"Kiryu baseball stadium","ja":"桐生球場前","lat":36.41928,"lng":139.297864},{"name":"Tenjuku","ja":"天王宿","lat":36.414975,"lng":139.308054},{"name":"Mt. Fuji","ja":"富士山下","lat":36.413992,"lng":139.315828},{"name":"Maruyama lower","ja":"丸山下","lat":36.416842,"lng":139.32128},{"name":"Nishikiri","ja":"西桐生","lat":36.414142,"lng":139.33269}]},{"id":11305,"name":"JR Musashino Line","ja":"JR武蔵野線","color":"#f1f04d","circular":false,"stations":[{"name":"Fuchu-cho","ja":"府中本町","lat":35.665766,"lng":139.477142},{"name":"Hokushi","ja":"北府中","lat":35.68088,"lng":139.471792},{"name":"Nishi Kokubunji","ja":"西国分寺","lat":35.699744,"lng":139.465994},{"name":"Shinpohei","ja":"新小平","lat":35.73128,"lng":139.470745},{"name":"Shin Azu","ja":"新秋津","lat":35.778331,"lng":139.493592},{"name":"Tozero","ja":"東所沢","lat":35.79461,"lng":139.513878},{"name":"Niiza","ja":"新座","lat":35.80381,"lng":139.556328},{"name":"Northern Asia","ja":"北朝霞","lat":35.815475,"lng":139.587322},{"name":"Nishiura sum","ja":"西浦和","lat":35.844139,"lng":139.627707},{"name":"Musashi Urawa","ja":"武蔵浦和","lat":35.846047,"lng":139.647974},{"name":"Minami Urawa","ja":"南浦和","lat":35.847648,"lng":139.669125},{"name":"Higashiura Japanese","ja":"東浦和","lat":35.864079,"lng":139.704627},{"name":"Higashikawaguchi","ja":"東川口","lat":35.875246,"lng":139.744087},{"name":"Minamikoshigaya","ja":"南越谷","lat":35.876106,"lng":139.790499},{"name":"Koshigaya Lake Town","ja":"越谷レイクタウン","lat":35.87622,"lng":139.820219},{"name":"Yoshikawa","ja":"吉川","lat":35.87662,"lng":139.843162},{"name":"Yoshikawa Minami","ja":"吉川美南","lat":35.868056,"lng":139.858167},{"name":"New Shimogo","ja":"新三郷","lat":35.858667,"lng":139.869341},{"name":"Misato","ja":"三郷","lat":35.845004,"lng":139.886341},{"name":"Nankozan","ja":"南流山","lat":35.838035,"lng":139.903865},{"name":"Shin-Matsudo","ja":"新松戸","lat":35.825467,"lng":139.921076},{"name":"Shinpachi","ja":"新八柱","lat":35.792013,"lng":139.938393},{"name":"Higashi Matsudo","ja":"東松戸","lat":35.770611,"lng":139.943848},{"name":"Ichikawa Ono","ja":"市川大野","lat":35.755432,"lng":139.951227},{"name":"Funabashi law","ja":"船橋法典","lat":35.730435,"lng":139.966771},{"name":"Nishi-Funabashi","ja":"西船橋","lat":35.707283,"lng":139.959536}]},{"id":11317,"name":"JR Hachiaki Line (Hachioji - Tone River)","ja":"JR八高線(八王子～高麗川)","color":"#c64fcb","circular":false,"stations":[{"name":"Hachioji","ja":"八王子","lat":35.655555,"lng":139.338998},{"name":"Kita Hachioji","ja":"北八王子","lat":35.669232,"lng":139.363348},{"name":"Komiya","ja":"小宮","lat":35.685799,"lng":139.368481},{"name":"Pear Island","ja":"拝島","lat":35.721278,"lng":139.343468},{"name":"Higashifuku","ja":"東福生","lat":35.745811,"lng":139.33594},{"name":"Hakone Kazaki","ja":"箱根ケ崎","lat":35.771158,"lng":139.346805},{"name":"Kaneko","ja":"金子","lat":35.810822,"lng":139.328546},{"name":"Higanban","ja":"東飯能","lat":35.852928,"lng":139.325965},{"name":"Koryo River","ja":"高麗川","lat":35.896328,"lng":139.33809}]},{"id":11318,"name":"JR Hachiaki Line (Takamado River - Takasaki)","ja":"JR八高線(高麗川～高崎)","color":"#585365","circular":false,"stations":[{"name":"Koryo River","ja":"高麗川","lat":35.896328,"lng":139.33809},{"name":"Moro","ja":"毛呂","lat":35.940806,"lng":139.309237},{"name":"Yoshigatsu","ja":"越生","lat":35.962559,"lng":139.299437},{"name":"Mental sensation","ja":"明覚","lat":36.003309,"lng":139.288789},{"name":"Ogawamachi","ja":"小川町","lat":36.05903,"lng":139.260412},{"name":"Takezawa","ja":"竹沢","lat":36.075466,"lng":139.229952},{"name":"Orihara","ja":"折原","lat":36.096296,"lng":139.195205},{"name":"Lodging","ja":"寄居","lat":36.118013,"lng":139.194224},{"name":"Soil","ja":"用土","lat":36.153858,"lng":139.200758},{"name":"Matsuhisa","ja":"松久","lat":36.172938,"lng":139.182127},{"name":"Kodama","ja":"児玉","lat":36.192624,"lng":139.13582},{"name":"Tanso","ja":"丹荘","lat":36.216668,"lng":139.102306},{"name":"Gunma Oka","ja":"群馬藤岡","lat":36.250336,"lng":139.08338},{"name":"Kita Tanoka","ja":"北藤岡","lat":36.282469,"lng":139.080779},{"name":"Kurano","ja":"倉賀野","lat":36.300216,"lng":139.049474},{"name":"Takasaki","ja":"高崎","lat":36.322239,"lng":139.012354}]},{"id":11319,"name":"Utsunomiya Line","ja":"宇都宮線","color":"#40d46e","circular":false,"stations":[{"name":"Ueno","ja":"上野","lat":35.71379,"lng":139.777043},{"name":"Takeshi","ja":"尾久","lat":35.74683,"lng":139.753846},{"name":"Akabane","ja":"赤羽","lat":35.778026,"lng":139.720928},{"name":"Urawa","ja":"浦和","lat":35.858496,"lng":139.657109},{"name":"Saitama Shintoshin down center","ja":"さいたま新都心","lat":35.893867,"lng":139.633587},{"name":"Omiya","ja":"大宮","lat":35.906439,"lng":139.62405},{"name":"Touro","ja":"土呂","lat":35.931997,"lng":139.63214},{"name":"Higashi Omiya","ja":"東大宮","lat":35.948751,"lng":139.640291},{"name":"Hida","ja":"蓮田","lat":35.981272,"lng":139.653016},{"name":"Shiraoka","ja":"白岡","lat":36.01774,"lng":139.666826},{"name":"Shinbaoka","ja":"新白岡","lat":36.038732,"lng":139.67208},{"name":"Kuki","ja":"久喜","lat":36.065684,"lng":139.67727},{"name":"Eastern Washi Palace","ja":"東鷲宮","lat":36.089428,"lng":139.67913},{"name":"Kurihashi","ja":"栗橋","lat":36.136852,"lng":139.694177},{"name":"Furukawa","ja":"古河","lat":36.194375,"lng":139.709726},{"name":"A tree","ja":"野木","lat":36.229963,"lng":139.734729},{"name":"Zushida","ja":"間々田","lat":36.257907,"lng":139.761039},{"name":"Oyama","ja":"小山","lat":36.312747,"lng":139.806241},{"name":"Koganei","ja":"小金井","lat":36.374435,"lng":139.842232},{"name":"Self-governing doctor","ja":"自治医大","lat":36.39543,"lng":139.854524},{"name":"Ishibashi","ja":"石橋","lat":36.43651,"lng":139.866536},{"name":"A shogunyu","ja":"雀宮","lat":36.493845,"lng":139.876811},{"name":"Utsunomiya","ja":"宇都宮","lat":36.559246,"lng":139.898389},{"name":"Okamoto","ja":"岡本","lat":36.598182,"lng":139.944363},{"name":"Takamaruji","ja":"宝積寺","lat":36.631703,"lng":139.979487},{"name":"A family house","ja":"氏家","lat":36.681696,"lng":139.9621},{"name":"Kamisaka","ja":"蒲須坂","lat":36.720727,"lng":139.950461},{"name":"Kataoka","ja":"片岡","lat":36.754557,"lng":139.945665},{"name":"Pile sheet","ja":"矢板","lat":36.80655,"lng":139.932912},{"name":"Nozaki","ja":"野崎","lat":36.843722,"lng":139.957752},{"name":"Nishinasuno","ja":"西那須野","lat":36.883726,"lng":139.986383},{"name":"Nasushiobara","ja":"那須塩原","lat":36.931956,"lng":140.020694},{"name":"Kuroiso","ja":"黒磯","lat":36.970128,"lng":140.060204}]},{"id":11321,"name":"JR Saikyo Line","ja":"JR埼京線","color":"#007540","circular":false,"stations":[{"name":"Osaki","ja":"大崎","lat":35.619772,"lng":139.728439},{"name":"Ebisu","ja":"恵比寿","lat":35.646685,"lng":139.71007},{"name":"Shibuya","ja":"渋谷","lat":35.658871,"lng":139.701238},{"name":"Shinjuku","ja":"新宿","lat":35.689729,"lng":139.700464},{"name":"Ikebukuro","ja":"池袋","lat":35.730256,"lng":139.711086},{"name":"Itabashi","ja":"板橋","lat":35.745435,"lng":139.719507},{"name":"Jujo","ja":"十条","lat":35.760321,"lng":139.722233},{"name":"Akabane","ja":"赤羽","lat":35.778026,"lng":139.720928},{"name":"North Akabane","ja":"北赤羽","lat":35.787007,"lng":139.70569},{"name":"Ukima Transfer","ja":"浮間舟渡","lat":35.791209,"lng":139.691341},{"name":"Toda Koen","ja":"戸田公園","lat":35.807906,"lng":139.678203},{"name":"Toda","ja":"戸田","lat":35.817665,"lng":139.669548},{"name":"Kita Toda","ja":"北戸田","lat":35.826883,"lng":139.661201},{"name":"Musashi Urawa","ja":"武蔵浦和","lat":35.845422,"lng":139.646809},{"name":"Middle Urawa","ja":"中浦和","lat":35.853769,"lng":139.6375},{"name":"Minamino","ja":"南与野","lat":35.867456,"lng":139.631117},{"name":"Yonomacho","ja":"与野本町","lat":35.880968,"lng":139.626075},{"name":"Kitahara","ja":"北与野","lat":35.890678,"lng":139.628521},{"name":"Omiya","ja":"大宮","lat":35.906439,"lng":139.62405}]},{"id":11322,"name":"JR Kawagoe Line","ja":"JR川越線","color":"#4a786f","circular":false,"stations":[{"name":"Omiya","ja":"大宮","lat":35.906439,"lng":139.62405},{"name":"Nisshin","ja":"日進","lat":35.931555,"lng":139.606111},{"name":"Nishi Omiya","ja":"西大宮","lat":35.922281333698294,"lng":139.57979679107666},{"name":"A finger fan","ja":"指扇","lat":35.917023,"lng":139.564951},{"name":"Minami Furuya","ja":"南古谷","lat":35.903344,"lng":139.519082},{"name":"Kawagoe","ja":"川越","lat":35.906742,"lng":139.483078},{"name":"Nishigahikoshi","ja":"西川越","lat":35.91909,"lng":139.459746},{"name":"Gym","ja":"的場","lat":35.917478,"lng":139.435376},{"name":"Kasahata","ja":"笠幡","lat":35.907551,"lng":139.40622},{"name":"Takahagi Musashi","ja":"武蔵高萩","lat":35.901729,"lng":139.371123},{"name":"Koryo River","ja":"高麗川","lat":35.896328,"lng":139.33809}]},{"id":11323,"name":"JR Takasaki Line","ja":"JR高崎線","color":"#424d6d","circular":false,"stations":[{"name":"Ueno","ja":"上野","lat":35.71379,"lng":139.777043},{"name":"Takeshi","ja":"尾久","lat":35.74683,"lng":139.753846},{"name":"Akabane","ja":"赤羽","lat":35.778026,"lng":139.720928},{"name":"Urawa","ja":"浦和","lat":35.858496,"lng":139.657109},{"name":"Saitama Shintoshin down center","ja":"さいたま新都心","lat":35.893867,"lng":139.633587},{"name":"Omiya","ja":"大宮","lat":35.906439,"lng":139.62405},{"name":"Miyahara","ja":"宮原","lat":35.940256,"lng":139.609455},{"name":"Ageo","ja":"上尾","lat":35.973522,"lng":139.588434},{"name":"Kitagamio","ja":"北上尾","lat":35.985632,"lng":139.577223},{"name":"Okugawa","ja":"桶川","lat":35.998375,"lng":139.564274},{"name":"Kitamoto","ja":"北本","lat":36.032112,"lng":139.533591},{"name":"Konosu","ja":"鴻巣","lat":36.0592,"lng":139.509552},{"name":"Kitakozuka","ja":"北鴻巣","lat":36.085529,"lng":139.476894},{"name":"Fukiage","ja":"吹上","lat":36.103062,"lng":139.45312},{"name":"Gyoda","ja":"行田","lat":36.113879,"lng":139.432103},{"name":"Kumagaya","ja":"熊谷","lat":36.139627,"lng":139.389528},{"name":"Kabohara","ja":"籠原","lat":36.17448,"lng":139.330199},{"name":"Fukaya","ja":"深谷","lat":36.191344,"lng":139.28127},{"name":"Okabe","ja":"岡部","lat":36.205645,"lng":139.237622},{"name":"Honjo","ja":"本庄","lat":36.236229,"lng":139.188299},{"name":"Jinbohara","ja":"神保原","lat":36.25359,"lng":139.149172},{"name":"Shinmachi","ja":"新町","lat":36.272984,"lng":139.105457},{"name":"Kurano","ja":"倉賀野","lat":36.300216,"lng":139.049474},{"name":"Takasaki","ja":"高崎","lat":36.322239,"lng":139.012354}]},{"id":11328,"name":"JR Narita Express","ja":"JR成田エクスプレス","color":"#f0757f","circular":false,"stations":[{"name":"Oboe","ja":"大船","lat":35.353466,"lng":139.531127},{"name":"Totsuka","ja":"戸塚","lat":35.400432,"lng":139.534282},{"name":"Yokohama","ja":"横浜","lat":35.466195,"lng":139.622704},{"name":"Musashi Kosugi","ja":"武蔵小杉","lat":35.575965,"lng":139.663278},{"name":"Omiya","ja":"大宮","lat":35.906439,"lng":139.62405},{"name":"Ikebukuro","ja":"池袋","lat":35.730256,"lng":139.711086},{"name":"Shinjuku","ja":"新宿","lat":35.689729,"lng":139.700464},{"name":"Takao","ja":"高尾","lat":35.642026,"lng":139.282288},{"name":"Hachioji","ja":"八王子","lat":35.655555,"lng":139.338998},{"name":"Tachikawa","ja":"立川","lat":35.698202,"lng":139.413704},{"name":"Kokubunji","ja":"国分寺","lat":35.700123,"lng":139.480841},{"name":"Mitaka","ja":"三鷹","lat":35.702683,"lng":139.560325},{"name":"Kichijoji","ja":"吉祥寺","lat":35.703119,"lng":139.579765},{"name":"Shibuya","ja":"渋谷","lat":35.658871,"lng":139.701238},{"name":"Shinagawa","ja":"品川","lat":35.62876,"lng":139.738999},{"name":"Tokyo","ja":"東京","lat":35.681391,"lng":139.766103},{"name":"Chiba","ja":"千葉","lat":35.613425,"lng":140.112837},{"name":"Yotsukaido","ja":"四街道","lat":35.662756,"lng":140.165023},{"name":"Narita","ja":"成田","lat":35.777796,"lng":140.313853},{"name":"Airport Second Building (2nd Passenger Terminal)","ja":"空港第２ビル（第２旅客ターミナル）","lat":35.773693,"lng":140.387163},{"name":"Narita Airport (1st Passenger Terminal)","ja":"成田空港（第１旅客ターミナル）","lat":35.763983,"lng":140.384644}]},{"id":11332,"name":"JR Keihin Tohoku Line","ja":"JR京浜東北線","color":"#00B2E5","circular":false,"stations":[{"name":"Omiya","ja":"大宮","lat":35.906439,"lng":139.62405},{"name":"Saitama Shintoshin down center","ja":"さいたま新都心","lat":35.893867,"lng":139.633587},{"name":"Yono","ja":"与野","lat":35.884393,"lng":139.639085},{"name":"Kitaurawa","ja":"北浦和","lat":35.872053,"lng":139.645951},{"name":"Urawa","ja":"浦和","lat":35.858496,"lng":139.657109},{"name":"Minami Urawa","ja":"南浦和","lat":35.847648,"lng":139.669125},{"name":"bracken","ja":"蕨","lat":35.827959,"lng":139.690357},{"name":"Nishikawaguchi","ja":"西川口","lat":35.815514,"lng":139.704312},{"name":"Kawaguchi","ja":"川口","lat":35.801869,"lng":139.717472},{"name":"Akabane","ja":"赤羽","lat":35.778026,"lng":139.720928},{"name":"Higashijo","ja":"東十条","lat":35.763803,"lng":139.726858},{"name":"prince","ja":"王子","lat":35.752538,"lng":139.73809},{"name":"Kamigori","ja":"上中里","lat":35.74728,"lng":139.745769},{"name":"Tabata","ja":"田端","lat":35.737781,"lng":139.761229},{"name":"Nishi nippori","ja":"西日暮里","lat":35.731954,"lng":139.766857},{"name":"Nippori","ja":"日暮里","lat":35.727908,"lng":139.771287},{"name":"Uguisudani","ja":"鶯谷","lat":35.721484,"lng":139.778015},{"name":"Ueno","ja":"上野","lat":35.71379,"lng":139.777043},{"name":"Okachimachi","ja":"御徒町","lat":35.707282,"lng":139.774727},{"name":"Akihabara","ja":"秋葉原","lat":35.698619,"lng":139.773288},{"name":"Kanda","ja":"神田","lat":35.691173,"lng":139.770641},{"name":"Tokyo","ja":"東京","lat":35.681391,"lng":139.766103},{"name":"Yurakucho","ja":"有楽町","lat":35.675441,"lng":139.763806},{"name":"Shimbashi","ja":"新橋","lat":35.666195,"lng":139.758587},{"name":"Hamamatsucho","ja":"浜松町","lat":35.655391,"lng":139.757135},{"name":"Tamachi","ja":"田町","lat":35.645736,"lng":139.747575},{"name":"Shinagawa","ja":"品川","lat":35.62876,"lng":139.738999},{"name":"Oi-machi","ja":"大井町","lat":35.606257,"lng":139.73485},{"name":"Omori","ja":"大森","lat":35.588903,"lng":139.728079},{"name":"Kamata","ja":"蒲田","lat":35.562517,"lng":139.716032},{"name":"Kawasaki","ja":"川崎","lat":35.531311,"lng":139.697485},{"name":"Tsurumi","ja":"鶴見","lat":35.508387,"lng":139.67614},{"name":"Shinkoyasu","ja":"新子安","lat":35.487064,"lng":139.654776},{"name":"Higashi Kanagawa","ja":"東神奈川","lat":35.47804,"lng":139.633466},{"name":"Yokohama","ja":"横浜","lat":35.466195,"lng":139.622704}]},{"id":11333,"name":"JR Shonan Shinjuku Line","ja":"JR湘南新宿ライン","color":"#E9003F","circular":false,"stations":[{"name":"Omiya","ja":"大宮","lat":35.906439,"lng":139.62405},{"name":"Urawa","ja":"浦和","lat":35.858496,"lng":139.657109},{"name":"Akabane","ja":"赤羽","lat":35.778026,"lng":139.720928},{"name":"Ikebukuro","ja":"池袋","lat":35.730256,"lng":139.711086},{"name":"Shinjuku","ja":"新宿","lat":35.689729,"lng":139.700464},{"name":"Shibuya","ja":"渋谷","lat":35.658871,"lng":139.701238},{"name":"Ebisu","ja":"恵比寿","lat":35.646685,"lng":139.71007},{"name":"Osaki","ja":"大崎","lat":35.619772,"lng":139.728439},{"name":"Nishiii","ja":"西大井","lat":35.601616,"lng":139.721729},{"name":"Musashi Kosugi","ja":"武蔵小杉","lat":35.57669,"lng":139.65963},{"name":"Shin Kawasaki","ja":"新川崎","lat":35.551784,"lng":139.671481},{"name":"Yokohama","ja":"横浜","lat":35.466195,"lng":139.622704},{"name":"Hodoguchiya","ja":"保土ケ谷","lat":35.446746,"lng":139.599671},{"name":"Higashidotsuka","ja":"東戸塚","lat":35.430353,"lng":139.556794},{"name":"Totsuka","ja":"戸塚","lat":35.400432,"lng":139.534282},{"name":"Oboe","ja":"大船","lat":35.353466,"lng":139.531127}]},{"id":21001,"name":"Tobu Tojo Line","ja":"東武東上線","color":"#003087","circular":false,"stations":[{"name":"Ikebukuro","ja":"池袋","lat":35.730924,"lng":139.710678},{"name":"North Ikebukuro","ja":"北池袋","lat":35.741283,"lng":139.716749},{"name":"Bottom Butt","ja":"下板橋","lat":35.745721,"lng":139.714785},{"name":"Oyama","ja":"大山","lat":35.748398,"lng":139.702589},{"name":"Nakamondabashi","ja":"中板橋","lat":35.756214,"lng":139.694628},{"name":"Sometime","ja":"ときわ台","lat":35.758771,"lng":139.689015},{"name":"Uehidobashi","ja":"上板橋","lat":35.763596,"lng":139.67641},{"name":"Tobu Horse","ja":"東武練馬","lat":35.768698,"lng":139.661964},{"name":"Akafuka","ja":"下赤塚","lat":35.770558,"lng":139.644482},{"name":"Increase","ja":"成増","lat":35.777723,"lng":139.632708},{"name":"Wako-shi","ja":"和光市","lat":35.788507,"lng":139.612434},{"name":"Asaka","ja":"朝霞","lat":35.796736,"lng":139.600321},{"name":"Asaka dai","ja":"朝霞台","lat":35.814328,"lng":139.587189},{"name":"Shiki","ja":"志木","lat":35.822105,"lng":139.575367},{"name":"Yanagasegawa","ja":"柳瀬川","lat":35.830723,"lng":139.562071},{"name":"Mizuhodai","ja":"みずほ台","lat":35.838233,"lng":139.55078},{"name":"Tsuruse","ja":"鶴瀬","lat":35.845776,"lng":139.539347},{"name":"Fujimino","ja":"ふじみ野","lat":35.860735,"lng":139.523389},{"name":"Kamifukuoka","ja":"上福岡","lat":35.873855,"lng":139.511782},{"name":"Shinkaku","ja":"新河岸","lat":35.890911,"lng":139.497257},{"name":"Kawagoe","ja":"川越","lat":35.906742,"lng":139.483078},{"name":"Kawagoe-shi","ja":"川越市","lat":35.914146,"lng":139.476989},{"name":"Kasumigaseki","ja":"霞ヶ関","lat":35.925635,"lng":139.442897},{"name":"Tsurugashima","ja":"鶴ヶ島","lat":35.936771,"lng":139.423825},{"name":"Young leaves","ja":"若葉","lat":35.948919,"lng":139.408782},{"name":"Sakado","ja":"坂戸","lat":35.957181,"lng":139.394032},{"name":"Kita Sakado","ja":"北坂戸","lat":35.972098,"lng":139.396932},{"name":"Takasaka","ja":"高坂","lat":36.002572,"lng":139.397747},{"name":"Higashimatsuyama","ja":"東松山","lat":36.034608,"lng":139.401651},{"name":"Forest Park","ja":"森林公園","lat":36.045239,"lng":139.374947},{"name":"Accompanying","ja":"つきのわ","lat":36.04352,"lng":139.345541},{"name":"Musashi-ranchi","ja":"武蔵嵐山","lat":36.044001,"lng":139.32829},{"name":"Ogawamachi","ja":"小川町","lat":36.05903,"lng":139.260412},{"name":"Tobu Takezawa","ja":"東武竹沢","lat":36.0754,"lng":139.237591},{"name":"A man","ja":"男衾","lat":36.107415,"lng":139.234442},{"name":"Bowl shape","ja":"鉢形","lat":36.11378,"lng":139.208649},{"name":"Yodo","ja":"玉淀","lat":36.117071,"lng":139.200052},{"name":"Lodging","ja":"寄居","lat":36.117597,"lng":139.194508}]},{"id":21002,"name":"Tobu Isesaki Line","ja":"東武伊勢崎線","color":"#003087","circular":false,"stations":[{"name":"Asakusa","ja":"浅草","lat":35.711883,"lng":139.798214},{"name":"Tokyo Sky Tree","ja":"とうきょうスカイツリー","lat":35.71043,"lng":139.809332},{"name":"Oshigami <before sky tree>","ja":"押上〈スカイツリー前〉","lat":35.710702,"lng":139.812935},{"name":"A ship","ja":"曳舟","lat":35.718418,"lng":139.816634},{"name":"Higashi-jima","ja":"東向島","lat":35.724324,"lng":139.819306},{"name":"Kaneguchi","ja":"鐘ヶ淵","lat":35.733712,"lng":139.820344},{"name":"Horikiri","ja":"堀切","lat":35.742977,"lng":139.817727},{"name":"Ushida","ja":"牛田","lat":35.744555,"lng":139.811816},{"name":"Kita Senju","ja":"北千住","lat":35.749891,"lng":139.805564},{"name":"Kosuge","ja":"小菅","lat":35.759039,"lng":139.812935},{"name":"Gomono","ja":"五反野","lat":35.765852,"lng":139.809643},{"name":"Umejima","ja":"梅島","lat":35.772437,"lng":139.797916},{"name":"Nishiarai","ja":"西新井","lat":35.777323,"lng":139.790372},{"name":"Takenotsuka","ja":"竹ノ塚","lat":35.794368,"lng":139.790788},{"name":"Yatsuka","ja":"谷塚","lat":35.814926,"lng":139.801483},{"name":"Soka","ja":"草加","lat":35.828476,"lng":139.803397},{"name":"Dokkyo University Front Station <Soka Matsubara>","ja":"獨協大学前駅〈草加松原〉","lat":35.84333,"lng":139.800622},{"name":"Nitta","ja":"新田","lat":35.854086,"lng":139.795391},{"name":"Gamo","ja":"蒲生","lat":35.866851,"lng":139.791686},{"name":"Shin-Etsuya","ja":"新越谷","lat":35.875186,"lng":139.789905},{"name":"Koshigaya","ja":"越谷","lat":35.887529,"lng":139.786213},{"name":"Hokuseikaya","ja":"北越谷","lat":35.901724,"lng":139.780008},{"name":"A large bag","ja":"大袋","lat":35.92437,"lng":139.777868},{"name":"Sliding table","ja":"せんげん台","lat":35.935832,"lng":139.774478},{"name":"Takei","ja":"武里","lat":35.949102,"lng":139.770675},{"name":"Ichinobi","ja":"一ノ割","lat":35.96412,"lng":139.766219},{"name":"Kasukabe","ja":"春日部","lat":35.980095,"lng":139.752345},{"name":"Kita-san","ja":"北春日部","lat":35.990655,"lng":139.744012},{"name":"Himamiya","ja":"姫宮","lat":36.004384,"lng":139.738674},{"name":"Tobudobukoen","ja":"東武動物公園","lat":36.024604,"lng":139.726901},{"name":"Wato","ja":"和戸","lat":36.039562,"lng":139.701156},{"name":"Kuki","ja":"久喜","lat":36.065684,"lng":139.67727},{"name":"Washimiya","ja":"鷲宮","lat":36.09626,"lng":139.656945},{"name":"Hanazaki","ja":"花崎","lat":36.109891,"lng":139.633522},{"name":"Kazu","ja":"加須","lat":36.122992,"lng":139.595584},{"name":"Minami Hanyu","ja":"南羽生","lat":36.14959,"lng":139.55696},{"name":"Hanyi","ja":"羽生","lat":36.170345,"lng":139.533949},{"name":"Kawamata","ja":"川俣","lat":36.208778,"lng":139.52652},{"name":"Maolin-senmae","ja":"茂林寺前","lat":36.226331,"lng":139.527058},{"name":"Tatebayashi","ja":"館林","lat":36.246606,"lng":139.527811},{"name":"Many people","ja":"多々良","lat":36.273732,"lng":139.500179},{"name":"Prefecture","ja":"県","lat":36.290615,"lng":139.472336},{"name":"Fukui","ja":"福居","lat":36.305208,"lng":139.458634},{"name":"Tobu Izumi","ja":"東武和泉","lat":36.315595,"lng":139.45509},{"name":"Ashikaga","ja":"足利市","lat":36.32948,"lng":139.448113},{"name":"Nozō Yamabe","ja":"野州山辺","lat":36.32633,"lng":139.431981},{"name":"Rukawa","ja":"韮川","lat":36.307913,"lng":139.401704},{"name":"Ota","ja":"太田","lat":36.294228,"lng":139.378779},{"name":"Hosotani","ja":"細谷","lat":36.282523,"lng":139.348509},{"name":"Kisaki","ja":"木崎","lat":36.271393,"lng":139.312988},{"name":"Saiga","ja":"世良田","lat":36.272931,"lng":139.282038},{"name":"Saikyo","ja":"境町","lat":36.277191,"lng":139.256177},{"name":"Tsuyoshi","ja":"剛志","lat":36.295428,"lng":139.223792},{"name":"New Isezaki","ja":"新伊勢崎","lat":36.318052,"lng":139.201816},{"name":"Isezaki","ja":"伊勢崎","lat":36.326622,"lng":139.194559}]},{"id":21003,"name":"Tobu Nikko Line","ja":"東武日光線","color":"#003087","circular":false,"stations":[{"name":"Tobudobukoen","ja":"東武動物公園","lat":36.024604,"lng":139.726901},{"name":"Sugito Takanojidai","ja":"杉戸高野台","lat":36.051536,"lng":139.714582},{"name":"Sachio","ja":"幸手","lat":36.074297,"lng":139.714937},{"name":"Minami Kuribashi Bridge","ja":"南栗橋","lat":36.113157,"lng":139.713004},{"name":"Kurihashi","ja":"栗橋","lat":36.137034,"lng":139.693855},{"name":"Shin Furukawa","ja":"新古河","lat":36.192686,"lng":139.686904},{"name":"Yagyu","ja":"柳生","lat":36.206756,"lng":139.659645},{"name":"Itakura Toyo University","ja":"板倉東洋大前","lat":36.222404,"lng":139.648493},{"name":"Fujioka","ja":"藤岡","lat":36.255628,"lng":139.64555},{"name":"Quiet","ja":"静和","lat":36.31651,"lng":139.684864},{"name":"Shin Ohirashita","ja":"新大平下","lat":36.339024,"lng":139.701886},{"name":"Tochigi","ja":"栃木","lat":36.371912,"lng":139.731037},{"name":"New Tochigi","ja":"新栃木","lat":36.390149,"lng":139.742308},{"name":"Battlefield","ja":"合戦場","lat":36.407647,"lng":139.741057},{"name":"Whole house","ja":"家中","lat":36.429783,"lng":139.747344},{"name":"Tobu Kanzaki","ja":"東武金崎","lat":36.466288,"lng":139.749468},{"name":"Nagi","ja":"楡木","lat":36.507497,"lng":139.745164},{"name":"Yezan","ja":"樅山","lat":36.532667,"lng":139.741875},{"name":"Shin Kanuma","ja":"新鹿沼","lat":36.556998,"lng":139.74478},{"name":"North Kanuma","ja":"北鹿沼","lat":36.580811,"lng":139.737646},{"name":"Plate","ja":"板荷","lat":36.619476,"lng":139.707739},{"name":"Lower fee","ja":"下小代","lat":36.651303,"lng":139.713849},{"name":"Myojin","ja":"明神","lat":36.676566,"lng":139.712301},{"name":"Kotoka","ja":"下今市","lat":36.72563,"lng":139.692666},{"name":"Kamiseichi","ja":"上今市","lat":36.727962,"lng":139.681026},{"name":"Tobu Nikko","ja":"東武日光","lat":36.748233,"lng":139.61975}]},{"id":21004,"name":"Tobu Noda line","ja":"東武野田線","color":"#003087","circular":false,"stations":[{"name":"Omiya","ja":"大宮","lat":35.907599,"lng":139.624458},{"name":"Kitamiya","ja":"北大宮","lat":35.91716,"lng":139.624726},{"name":"Omiya Park","ja":"大宮公園","lat":35.92374,"lng":139.632903},{"name":"Owada","ja":"大和田","lat":35.929359,"lng":139.65051},{"name":"Shichiri","ja":"七里","lat":35.936464,"lng":139.665948},{"name":"Iwatsuki","ja":"岩槻","lat":35.950239,"lng":139.693197},{"name":"Toagoseki","ja":"東岩槻","lat":35.963273,"lng":139.712192},{"name":"Fushun","ja":"豊春","lat":35.968014,"lng":139.72601},{"name":"Yagisaki","ja":"八木崎","lat":35.978376,"lng":139.741785},{"name":"Kasukabe","ja":"春日部","lat":35.980095,"lng":139.752345},{"name":"Fujisobeojima","ja":"藤の牛島","lat":35.98026,"lng":139.778038},{"name":"Minami Sakurai","ja":"南桜井","lat":35.980441,"lng":139.807988},{"name":"Riverside","ja":"川間","lat":35.979172,"lng":139.83385},{"name":"Shikokoshidai","ja":"七光台","lat":35.970884,"lng":139.852906},{"name":"Shimizu Park","ja":"清水公園","lat":35.959364,"lng":139.85967},{"name":"Atago","ja":"愛宕","lat":35.950154,"lng":139.864817},{"name":"Noda-shi","ja":"野田市","lat":35.943652,"lng":139.870728},{"name":"Umezo","ja":"梅郷","lat":35.931575,"lng":139.891086},{"name":"canal","ja":"運河","lat":35.914392,"lng":139.906063},{"name":"Edogawadai","ja":"江戸川台","lat":35.897344,"lng":139.91045},{"name":"First stone","ja":"初石","lat":35.883783,"lng":139.917861},{"name":"Mt. Nagareyama Ontaka Forest","ja":"流山おおたかの森","lat":35.872051,"lng":139.925898},{"name":"Toyoshiki","ja":"豊四季","lat":35.86657,"lng":139.93929},{"name":"oak","ja":"柏","lat":35.862316,"lng":139.971148},{"name":"Shinki","ja":"新柏","lat":35.838128,"lng":139.966994},{"name":"Masuo","ja":"増尾","lat":35.829704,"lng":139.976604},{"name":"Okui","ja":"逆井","lat":35.823336,"lng":139.983812},{"name":"Takayanagi","ja":"高柳","lat":35.808211,"lng":139.998936},{"name":"Sumi","ja":"六実","lat":35.793715,"lng":139.999195},{"name":"Shin Kamagaya","ja":"新鎌ヶ谷","lat":35.780221,"lng":139.999455},{"name":"Kamigaya","ja":"鎌ヶ谷","lat":35.763765,"lng":139.997266},{"name":"Ma · Inosawa","ja":"馬込沢","lat":35.741586,"lng":139.992199},{"name":"Tsukada","ja":"塚田","lat":35.722102,"lng":139.982859},{"name":"New Funabashi","ja":"新船橋","lat":35.710993,"lng":139.979765},{"name":"Funabashi","ja":"船橋","lat":35.7021,"lng":139.98436}]},{"id":21007,"name":"Tobu Oshi line","ja":"東武越生線","color":"#003087","circular":false,"stations":[{"name":"Sakado","ja":"坂戸","lat":35.957181,"lng":139.394032},{"name":"Ichimatsu","ja":"一本松","lat":35.94008,"lng":139.370062},{"name":"Nishi Oya","ja":"西大家","lat":35.931698,"lng":139.356321},{"name":"Kawakami","ja":"川角","lat":35.937438,"lng":139.346426},{"name":"Kyushu Nagase","ja":"武州長瀬","lat":35.942023,"lng":139.325561},{"name":"Toeiro","ja":"東毛呂","lat":35.947058,"lng":139.315303},{"name":"Kashuzawa","ja":"武州唐沢","lat":35.952127,"lng":139.30912},{"name":"Yoshigatsu","ja":"越生","lat":35.962559,"lng":139.299437}]},{"id":22001,"name":"Seibu Ikebukuro Line","ja":"西武池袋線","color":"#009944","circular":false,"stations":[{"name":"Ikebukuro","ja":"池袋","lat":35.72913,"lng":139.711461},{"name":"Shiina Town","ja":"椎名町","lat":35.726572,"lng":139.694363},{"name":"Higashinagasaki","ja":"東長崎","lat":35.73003,"lng":139.683294},{"name":"Ekoda","ja":"江古田","lat":35.737557,"lng":139.672814},{"name":"Sakuradai","ja":"桜台","lat":35.738797,"lng":139.662602},{"name":"Nerima","ja":"練馬","lat":35.737893,"lng":139.654368},{"name":"Nakamura Bridge","ja":"中村橋","lat":35.736767,"lng":139.637456},{"name":"Fujimidai","ja":"富士見台","lat":35.735867,"lng":139.62969},{"name":"Nerima Takanojidai","ja":"練馬高野台","lat":35.740622,"lng":139.616749},{"name":"Shakujii Park","ja":"石神井公園","lat":35.743563,"lng":139.606981},{"name":"Oizumi-gakuen","ja":"大泉学園","lat":35.749406,"lng":139.586732},{"name":"Yotsuya","ja":"保谷","lat":35.748222,"lng":139.567753},{"name":"Hibarigaoka","ja":"ひばりヶ丘","lat":35.751485,"lng":139.545852},{"name":"Higiri-gun","ja":"東久留米","lat":35.760445,"lng":139.533739},{"name":"Kiyose","ja":"清瀬","lat":35.772221,"lng":139.519917},{"name":"Akitsu","ja":"秋津","lat":35.778614,"lng":139.496539},{"name":"Tokorozawa","ja":"所沢","lat":35.786627,"lng":139.473324},{"name":"Nishisawa","ja":"西所沢","lat":35.789303,"lng":139.455959},{"name":"Small finger","ja":"小手指","lat":35.800535,"lng":139.438016},{"name":"Sayumagaoka","ja":"狭山ヶ丘","lat":35.810445,"lng":139.416975},{"name":"Musashi Fujisawa","ja":"武蔵藤沢","lat":35.820963,"lng":139.412736},{"name":"Inari Shan Park","ja":"稲荷山公園","lat":35.845112,"lng":139.39842},{"name":"Iruma-shi","ja":"入間市","lat":35.842904,"lng":139.390294},{"name":"Buddha","ja":"仏子","lat":35.83769,"lng":139.360115},{"name":"Former Kaji","ja":"元加治","lat":35.84058,"lng":139.345316},{"name":"Hanno","ja":"飯能","lat":35.851189,"lng":139.318824},{"name":"Higanban","ja":"東飯能","lat":35.852928,"lng":139.325965},{"name":"Goryeo","ja":"高麗","lat":35.881982,"lng":139.304414},{"name":"Musashi Yokote","ja":"武蔵横手","lat":35.885256,"lng":139.280667},{"name":"Higashino Ono","ja":"東吾野","lat":35.892439,"lng":139.260281},{"name":"Ueno","ja":"吾野","lat":35.908502,"lng":139.226787}]},{"id":22002,"name":"Seibu Shimbun","ja":"西武秩父線","color":"#009944","circular":false,"stations":[{"name":"Hanno","ja":"飯能","lat":35.851189,"lng":139.318824},{"name":"Higanban","ja":"東飯能","lat":35.852928,"lng":139.325965},{"name":"Goryeo","ja":"高麗","lat":35.881982,"lng":139.304414},{"name":"Musashi Yokote","ja":"武蔵横手","lat":35.885256,"lng":139.280667},{"name":"Higashino Ono","ja":"東吾野","lat":35.892439,"lng":139.260281},{"name":"Ueno","ja":"吾野","lat":35.908502,"lng":139.226787},{"name":"Nishino","ja":"西吾野","lat":35.927082,"lng":139.202425},{"name":"Shosa","ja":"正丸","lat":35.938324,"lng":139.181521},{"name":"Kubo Ashigahara","ja":"芦ヶ久保","lat":35.976505,"lng":139.135982},{"name":"Yokose","ja":"横瀬","lat":35.985548,"lng":139.097818},{"name":"Nishimita father","ja":"西武秩父","lat":35.990061,"lng":139.083548}]},{"id":22005,"name":"Seibu Sayama Line","ja":"西武狭山線","color":"#009944","circular":false,"stations":[{"name":"Nishisawa","ja":"西所沢","lat":35.789303,"lng":139.455959},{"name":"Shimokasiguchi","ja":"下山口","lat":35.77941,"lng":139.441097},{"name":"Seibutsubashiba front","ja":"西武球場前","lat":35.77093,"lng":139.41966}]},{"id":22006,"name":"Leo liner","ja":"レオライナー","color":"#f9fc54","circular":false,"stations":[{"name":"Seibu Park","ja":"西武遊園地","lat":35.765881,"lng":139.442747},{"name":"Amusement park west","ja":"遊園地西","lat":35.769042,"lng":139.440166},{"name":"Seibutsubashiba front","ja":"西武球場前","lat":35.77093,"lng":139.41966}]},{"id":22007,"name":"Seibu Shinjuku Line","ja":"西武新宿線","color":"#6CBB5A","circular":false,"stations":[{"name":"Seibu Shinjuku","ja":"西武新宿","lat":35.696254,"lng":139.7},{"name":"Takadanobaba","ja":"高田馬場","lat":35.712677,"lng":139.703715},{"name":"Descendants","ja":"下落合","lat":35.715846,"lng":139.695391},{"name":"Nakai","ja":"中井","lat":35.715106,"lng":139.686967},{"name":"Arai Pharmacist","ja":"新井薬師前","lat":35.715778,"lng":139.672582},{"name":"A sack","ja":"沼袋","lat":35.719458,"lng":139.663841},{"name":"Nogata","ja":"野方","lat":35.719658,"lng":139.652733},{"name":"Tokyo metropolitan government","ja":"都立家政","lat":35.722313,"lng":139.644839},{"name":"Saginomiya","ja":"鷺ノ宮","lat":35.722605,"lng":139.63892},{"name":"Shimoigusuku","ja":"下井草","lat":35.723852,"lng":139.624688},{"name":"Inogi","ja":"井荻","lat":35.72469,"lng":139.615303},{"name":"Uenegusa","ja":"上井草","lat":35.725326,"lng":139.602937},{"name":"Kamishijinai","ja":"上石神井","lat":35.726189,"lng":139.592266},{"name":"Musashi","ja":"武蔵関","lat":35.7276,"lng":139.576417},{"name":"Higashi-Bashi","ja":"東伏見","lat":35.728761,"lng":139.563529},{"name":"Seibu Yanagisawa","ja":"西武柳沢","lat":35.728621,"lng":139.552477},{"name":"Tanashi","ja":"田無","lat":35.727307,"lng":139.539259},{"name":"Hanagoganei","ja":"花小金井","lat":35.726129,"lng":139.513228},{"name":"Kodaira","ja":"小平","lat":35.736963,"lng":139.488491},{"name":"Kume River","ja":"久米川","lat":35.749575,"lng":139.472653},{"name":"Higashimurayama","ja":"東村山","lat":35.76006,"lng":139.465839},{"name":"Tokorozawa","ja":"所沢","lat":35.786627,"lng":139.473324},{"name":"Airport park","ja":"航空公園","lat":35.798272,"lng":139.465641},{"name":"Shinazawa","ja":"新所沢","lat":35.805854,"lng":139.457069},{"name":"Entrance","ja":"入曽","lat":35.832481,"lng":139.427304},{"name":"Sayama","ja":"狭山市","lat":35.856936,"lng":139.413015},{"name":"Shinsuyama","ja":"新狭山","lat":35.873993,"lng":139.433499},{"name":"Minami Otsuka","ja":"南大塚","lat":35.889663,"lng":139.454189},{"name":"Konkawagoe","ja":"本川越","lat":35.913524,"lng":139.481125}]},{"id":28006,"name":"Tokyo Metro Yurakucho Line","ja":"東京メトロ有楽町線","color":"#C9A800","circular":false,"stations":[{"name":"Wako-shi","ja":"和光市","lat":35.788507,"lng":139.612434},{"name":"Subway rise","ja":"地下鉄成増","lat":35.776557,"lng":139.631497},{"name":"Akatsuka Subway","ja":"地下鉄赤塚","lat":35.769939,"lng":139.644021},{"name":"Heiwadai","ja":"平和台","lat":35.757863,"lng":139.653762},{"name":"Iikawadai","ja":"氷川台","lat":35.74955,"lng":139.665567},{"name":"Kotakebara","ja":"小竹向原","lat":35.743803,"lng":139.678572},{"name":"Chikawa","ja":"千川","lat":35.738229,"lng":139.689271},{"name":"Town","ja":"要町","lat":35.73323,"lng":139.698715},{"name":"Ikebukuro","ja":"池袋","lat":35.729565,"lng":139.710088},{"name":"Higashi Ikebukuro","ja":"東池袋","lat":35.725732,"lng":139.719546},{"name":"Gokoku-ji","ja":"護国寺","lat":35.719044,"lng":139.72754},{"name":"Edogawa Bridge","ja":"江戸川橋","lat":35.709495,"lng":139.733538},{"name":"Iidabashi","ja":"飯田橋","lat":35.701934,"lng":139.743669},{"name":"Ichigaya","ja":"市ケ谷","lat":35.691958,"lng":139.73647},{"name":"Kōjimachi","ja":"麹町","lat":35.684006,"lng":139.737613},{"name":"Nagatacho","ja":"永田町","lat":35.678757,"lng":139.740258},{"name":"Sakuradamon","ja":"桜田門","lat":35.677405,"lng":139.75149},{"name":"Yurakucho","ja":"有楽町","lat":35.675714,"lng":139.763265},{"name":"Ginza 1-chome","ja":"銀座一丁目","lat":35.67435,"lng":139.767045},{"name":"Shintomi cho","ja":"新富町","lat":35.670462,"lng":139.773711},{"name":"Tsukishima","ja":"月島","lat":35.664871,"lng":139.784233},{"name":"Toyosu","ja":"豊洲","lat":35.654908,"lng":139.79621},{"name":"Tatsumi","ja":"辰巳","lat":35.645576,"lng":139.81052},{"name":"Shinkiba","ja":"新木場","lat":35.645832,"lng":139.826254}]},{"id":28010,"name":"Tokyo Metro Fukutoshin Line","ja":"東京メトロ副都心線","color":"#9C5E31","circular":false,"stations":[{"name":"Wako-shi","ja":"和光市","lat":35.788507,"lng":139.612434},{"name":"Subway rise","ja":"地下鉄成増","lat":35.776557,"lng":139.631497},{"name":"Akatsuka Subway","ja":"地下鉄赤塚","lat":35.769939,"lng":139.644021},{"name":"Heiwadai","ja":"平和台","lat":35.757863,"lng":139.653762},{"name":"Iikawadai","ja":"氷川台","lat":35.74955,"lng":139.665567},{"name":"Kotakebara","ja":"小竹向原","lat":35.743803,"lng":139.678572},{"name":"Chikawa","ja":"千川","lat":35.738229,"lng":139.689271},{"name":"Town","ja":"要町","lat":35.73323,"lng":139.698715},{"name":"Ikebukuro","ja":"池袋","lat":35.731464,"lng":139.708291},{"name":"Miscellaneous","ja":"雑司が谷","lat":35.720233,"lng":139.714795},{"name":"Nishi Waseda","ja":"西早稲田","lat":35.708242,"lng":139.709101},{"name":"Higashi Shinjuku","ja":"東新宿","lat":35.698915,"lng":139.707593},{"name":"Shinjuku 3-chome","ja":"新宿三丁目","lat":35.690853,"lng":139.704828},{"name":"Kitamendo","ja":"北参道","lat":35.678459,"lng":139.705453},{"name":"Meiji Jingumae <Harajuku>","ja":"明治神宮前〈原宿〉","lat":35.668497,"lng":139.705367},{"name":"Shibuya","ja":"渋谷","lat":35.659545,"lng":139.702417}]},{"id":99306,"name":"Chichibu Railway Chichibu Line","ja":"秩父鉄道秩父本線","color":"#faead1","circular":false,"stations":[{"name":"Hanyi","ja":"羽生","lat":36.170345,"lng":139.533949},{"name":"Nishi Hanyu","ja":"西羽生","lat":36.17635,"lng":139.523986},{"name":"Xinxiang","ja":"新郷","lat":36.171317,"lng":139.510474},{"name":"Araki Takehuchi","ja":"武州荒木","lat":36.162614,"lng":139.488569},{"name":"Higashidoda","ja":"東行田","lat":36.147265,"lng":139.468394},{"name":"Gyoda","ja":"行田市","lat":36.143759,"lng":139.458851},{"name":"Mochida","ja":"持田","lat":36.137615,"lng":139.44155},{"name":"Sosio Distribution Center","ja":"ソシオ流通センター","lat":36.1365,"lng":139.424333},{"name":"Kumagaya","ja":"熊谷","lat":36.139313,"lng":139.389542},{"name":"Kamikaya Valley","ja":"上熊谷","lat":36.142657,"lng":139.38134},{"name":"Ishihara","ja":"石原","lat":36.147612,"lng":139.368901},{"name":"Hirosete wild bird forest","ja":"ひろせ野鳥の森","lat":36.146242,"lng":139.352086},{"name":"Aizawa","ja":"大麻生","lat":36.144612,"lng":139.331859},{"name":"Mingo","ja":"明戸","lat":36.142958,"lng":139.303306},{"name":"Mukawa","ja":"武川","lat":36.142197,"lng":139.281714},{"name":"Nagata","ja":"永田","lat":36.135314,"lng":139.259516},{"name":"Koeda","ja":"小前田","lat":36.12895,"lng":139.222386},{"name":"Sakurazawa","ja":"桜沢","lat":36.128672,"lng":139.206981},{"name":"Lodging","ja":"寄居","lat":36.117801,"lng":139.194197},{"name":"Wave Hisae","ja":"波久礼","lat":36.126728,"lng":139.158078},{"name":"Higuchi","ja":"樋口","lat":36.131076,"lng":139.122226},{"name":"Nogami","ja":"野上","lat":36.11157,"lng":139.110865},{"name":"Nagatoro","ja":"長瀞","lat":36.095462,"lng":139.112346},{"name":"Shimonaga","ja":"上長瀞","lat":36.086169,"lng":139.11319},{"name":"Nose","ja":"親鼻","lat":36.077539,"lng":139.106103},{"name":"Minano","ja":"皆野","lat":36.068682,"lng":139.093947},{"name":"Kuroya Kuroya","ja":"和銅黒谷","lat":36.046671,"lng":139.101666},{"name":"Onohara","ja":"大野原","lat":36.018586,"lng":139.094071},{"name":"Chichibu","ja":"秩父","lat":35.99883,"lng":139.086044},{"name":"Flower garden","ja":"御花畑","lat":35.992369,"lng":139.083614},{"name":"Shadow forest","ja":"影森","lat":35.972015,"lng":139.068413},{"name":"Urasamaguchi","ja":"浦山口","lat":35.963922,"lng":139.058134},{"name":"Kyushu Nakagawa","ja":"武州中川","lat":35.958347,"lng":139.035439},{"name":"Kyushu Hino","ja":"武州日野","lat":35.953867,"lng":139.021888},{"name":"Hakuhisa","ja":"白久","lat":35.95895,"lng":138.993263},{"name":"Mimpokuchi","ja":"三峰口","lat":35.960075,"lng":138.978706}]},{"id":99307,"name":"Saitama high-speed rail line","ja":"埼玉高速鉄道線","color":"#5b53e2","circular":false,"stations":[{"name":"Akahatakabuchi","ja":"赤羽岩淵","lat":35.783417,"lng":139.722103},{"name":"Kawaguchi Motoyago","ja":"川口元郷","lat":35.800187,"lng":139.730043},{"name":"Minami Hogogaya","ja":"南鳩ヶ谷","lat":35.816839,"lng":139.736059},{"name":"Hatogaya","ja":"鳩ヶ谷","lat":35.830859,"lng":139.735967},{"name":"Shinjuku","ja":"新井宿","lat":35.842974,"lng":139.737908},{"name":"Azumi Totsuka","ja":"戸塚安行","lat":35.858873,"lng":139.753689},{"name":"Higashikawaguchi","ja":"東川口","lat":35.876211,"lng":139.74398},{"name":"Urawa Miyano","ja":"浦和美園","lat":35.893677,"lng":139.72779}]},{"id":99309,"name":"Tsukuba Express","ja":"つくばエクスプレス","color":"#ec5a4f","circular":false,"stations":[{"name":"Akihabara","ja":"秋葉原","lat":35.698889,"lng":139.774273},{"name":"Shinokabacho","ja":"新御徒町","lat":35.707045,"lng":139.781958},{"name":"Asakusa","ja":"浅草","lat":35.713817,"lng":139.792389},{"name":"Minami-senju","ja":"南千住","lat":35.732413,"lng":139.798783},{"name":"Kita Senju","ja":"北千住","lat":35.74949,"lng":139.805092},{"name":"Aoi","ja":"青井","lat":35.771782,"lng":139.82038},{"name":"Rokucho","ja":"六町","lat":35.784963,"lng":139.821816},{"name":"Yashio","ja":"八潮","lat":35.807905,"lng":139.845017},{"name":"Misato center","ja":"三郷中央","lat":35.824514,"lng":139.878344},{"name":"Nankozan","ja":"南流山","lat":35.83869,"lng":139.903271},{"name":"Nayama Central Park","ja":"流山セントラルパーク","lat":35.854552,"lng":139.915223},{"name":"Mt. Nagareyama Ontaka Forest","ja":"流山おおたかの森","lat":35.871799,"lng":139.925044},{"name":"Kashiwanoha Campus","ja":"柏の葉キャンパス","lat":35.89308,"lng":139.952454},{"name":"Kashiwa Tanaka","ja":"柏たなか","lat":35.9109,"lng":139.957533},{"name":"Moriya","ja":"守谷","lat":35.950626,"lng":139.992209},{"name":"Mirai Plain","ja":"みらい平","lat":35.99514,"lng":140.038555},{"name":"Green","ja":"みどりの","lat":36.03025,"lng":140.056276},{"name":"Expo Memorial Park","ja":"万博記念公園","lat":36.05841,"lng":140.059256},{"name":"Research school","ja":"研究学園","lat":36.0821,"lng":140.082256},{"name":"Tsukuba","ja":"つくば","lat":36.0825,"lng":140.110604}]},{"id":99321,"name":"New shuttle","ja":"ニューシャトル","color":"#696659","circular":false,"stations":[{"name":"Omiya","ja":"大宮","lat":35.90751,"lng":139.62254},{"name":"Railway Museum","ja":"鉄道博物館","lat":35.920271,"lng":139.617796},{"name":"Kamo-gu","ja":"加茂宮","lat":35.93568,"lng":139.616688},{"name":"Toho Miyahara","ja":"東宮原","lat":35.94262,"lng":139.618054},{"name":"Now feathers","ja":"今羽","lat":35.949941,"lng":139.619443},{"name":"Yoshinohara","ja":"吉野原","lat":35.957065,"lng":139.620862},{"name":"Hara City","ja":"原市","lat":35.964072,"lng":139.622531},{"name":"Sonan","ja":"沼南","lat":35.971165,"lng":139.623481},{"name":"Maruyama","ja":"丸山","lat":35.97989,"lng":139.624711},{"name":"Shiki","ja":"志久","lat":35.991099,"lng":139.62228},{"name":"Ina central","ja":"伊奈中央","lat":35.999537,"lng":139.617094},{"name":"Rainy season","ja":"羽貫","lat":36.007311,"lng":139.608608},{"name":"A lodging house","ja":"内宿","lat":36.014163,"lng":139.599878}]},{"id":11305,"name":"JR Musashino Line","ja":"JR武蔵野線","color":"#f1f04d","circular":false,"stations":[{"name":"Fuchu-cho","ja":"府中本町","lat":35.665766,"lng":139.477142},{"name":"Hokushi","ja":"北府中","lat":35.68088,"lng":139.471792},{"name":"Nishi Kokubunji","ja":"西国分寺","lat":35.699744,"lng":139.465994},{"name":"Shinpohei","ja":"新小平","lat":35.73128,"lng":139.470745},{"name":"Shin Azu","ja":"新秋津","lat":35.778331,"lng":139.493592},{"name":"Tozero","ja":"東所沢","lat":35.79461,"lng":139.513878},{"name":"Niiza","ja":"新座","lat":35.80381,"lng":139.556328},{"name":"Northern Asia","ja":"北朝霞","lat":35.815475,"lng":139.587322},{"name":"Nishiura sum","ja":"西浦和","lat":35.844139,"lng":139.627707},{"name":"Musashi Urawa","ja":"武蔵浦和","lat":35.846047,"lng":139.647974},{"name":"Minami Urawa","ja":"南浦和","lat":35.847648,"lng":139.669125},{"name":"Higashiura Japanese","ja":"東浦和","lat":35.864079,"lng":139.704627},{"name":"Higashikawaguchi","ja":"東川口","lat":35.875246,"lng":139.744087},{"name":"Minamikoshigaya","ja":"南越谷","lat":35.876106,"lng":139.790499},{"name":"Koshigaya Lake Town","ja":"越谷レイクタウン","lat":35.87622,"lng":139.820219},{"name":"Yoshikawa","ja":"吉川","lat":35.87662,"lng":139.843162},{"name":"Yoshikawa Minami","ja":"吉川美南","lat":35.868056,"lng":139.858167},{"name":"New Shimogo","ja":"新三郷","lat":35.858667,"lng":139.869341},{"name":"Misato","ja":"三郷","lat":35.845004,"lng":139.886341},{"name":"Nankozan","ja":"南流山","lat":35.838035,"lng":139.903865},{"name":"Shin-Matsudo","ja":"新松戸","lat":35.825467,"lng":139.921076},{"name":"Shinpachi","ja":"新八柱","lat":35.792013,"lng":139.938393},{"name":"Higashi Matsudo","ja":"東松戸","lat":35.770611,"lng":139.943848},{"name":"Ichikawa Ono","ja":"市川大野","lat":35.755432,"lng":139.951227},{"name":"Funabashi law","ja":"船橋法典","lat":35.730435,"lng":139.966771},{"name":"Nishi-Funabashi","ja":"西船橋","lat":35.707283,"lng":139.959536}]},{"id":11313,"name":"JR Chuo Sobu Line","ja":"JR中央・総武線","color":"#E85B0B","circular":false,"stations":[{"name":"Mitaka","ja":"三鷹","lat":35.702683,"lng":139.560325},{"name":"Kichijoji","ja":"吉祥寺","lat":35.703119,"lng":139.579765},{"name":"Nishigikubo","ja":"西荻窪","lat":35.703842,"lng":139.599361},{"name":"Ogikubo","ja":"荻窪","lat":35.704523,"lng":139.620109},{"name":"Asagaya","ja":"阿佐ケ谷","lat":35.704818,"lng":139.635868},{"name":"Koenji","ja":"高円寺","lat":35.705326,"lng":139.649664},{"name":"Nakano","ja":"中野","lat":35.705765,"lng":139.665835},{"name":"Higashi Nakano","ja":"東中野","lat":35.706529,"lng":139.684436},{"name":"Okubo","ja":"大久保","lat":35.700784,"lng":139.69732},{"name":"Shinjuku","ja":"新宿","lat":35.689729,"lng":139.700464},{"name":"Yoyogi","ja":"代々木","lat":35.683061,"lng":139.702042},{"name":"Senjigaya","ja":"千駄ケ谷","lat":35.681231,"lng":139.711644},{"name":"Shinano-machi","ja":"信濃町","lat":35.680031,"lng":139.720729},{"name":"Yotsuya","ja":"四ツ谷","lat":35.686041,"lng":139.730644},{"name":"Ichigaya","ja":"市ケ谷","lat":35.691105,"lng":139.735241},{"name":"Iidabashi","ja":"飯田橋","lat":35.701835,"lng":139.745143},{"name":"Aqueduct","ja":"水道橋","lat":35.702039,"lng":139.754312},{"name":"Ochanomizu","ja":"御茶ノ水","lat":35.699605,"lng":139.764955},{"name":"Akihabara","ja":"秋葉原","lat":35.698619,"lng":139.773288},{"name":"Asakusabashi","ja":"浅草橋","lat":35.697403,"lng":139.784427},{"name":"Both countries","ja":"両国","lat":35.69579,"lng":139.793334},{"name":"Kinshicho","ja":"錦糸町","lat":35.696802,"lng":139.814136},{"name":"Kameido","ja":"亀戸","lat":35.697345,"lng":139.826262},{"name":"Hirai","ja":"平井","lat":35.70643,"lng":139.842181},{"name":"Shinkoiwa","ja":"新小岩","lat":35.716903,"lng":139.857777},{"name":"Koiwa","ja":"小岩","lat":35.733207,"lng":139.881755},{"name":"Ichikawa","ja":"市川","lat":35.728903,"lng":139.908142},{"name":"Honhachiman","ja":"本八幡","lat":35.720898,"lng":139.92741},{"name":"Shimouses Nakayama","ja":"下総中山","lat":35.714276,"lng":139.943092},{"name":"Nishi-Funabashi","ja":"西船橋","lat":35.707283,"lng":139.959536},{"name":"Funabashi","ja":"船橋","lat":35.701865,"lng":139.984707},{"name":"Tobu Bridge","ja":"東船橋","lat":35.699811,"lng":140.00393},{"name":"Tsudanuma","ja":"津田沼","lat":35.691367,"lng":140.020179},{"name":"Makuhari Hong Togo","ja":"幕張本郷","lat":35.672664,"lng":140.042241},{"name":"Makuhari","ja":"幕張","lat":35.6594,"lng":140.057899},{"name":"Shinshin River","ja":"新検見川","lat":35.65169,"lng":140.073025},{"name":"Inage","ja":"稲毛","lat":35.637264,"lng":140.09256},{"name":"Nishi Chiba","ja":"西千葉","lat":35.622639,"lng":140.103337},{"name":"Chiba","ja":"千葉","lat":35.613425,"lng":140.112837}]},{"id":11314,"name":"JR Sobu Line","ja":"JR総武本線","color":"#FFD400","circular":false,"stations":[{"name":"Tokyo","ja":"東京","lat":35.681391,"lng":139.766103},{"name":"Shin Nihonbashi","ja":"新日本橋","lat":35.688687,"lng":139.77323},{"name":"Maki-machi","ja":"馬喰町","lat":35.693365,"lng":139.78238},{"name":"Kinshicho","ja":"錦糸町","lat":35.696802,"lng":139.814136},{"name":"Shinkoiwa","ja":"新小岩","lat":35.716903,"lng":139.857777},{"name":"Ichikawa","ja":"市川","lat":35.728903,"lng":139.908142},{"name":"Funabashi","ja":"船橋","lat":35.701865,"lng":139.984707},{"name":"Tsudanuma","ja":"津田沼","lat":35.691367,"lng":140.020179},{"name":"Inage","ja":"稲毛","lat":35.637264,"lng":140.09256},{"name":"Chiba","ja":"千葉","lat":35.613425,"lng":140.112837},{"name":"Higashi Chiba","ja":"東千葉","lat":35.617014,"lng":140.122261},{"name":"Tokaga","ja":"都賀","lat":35.636088,"lng":140.149222},{"name":"Yotsukaido","ja":"四街道","lat":35.662756,"lng":140.165023},{"name":"Stuff","ja":"物井","lat":35.68566,"lng":140.200263},{"name":"Sakura","ja":"佐倉","lat":35.709743,"lng":140.226722},{"name":"Minami-yujii","ja":"南酒々井","lat":35.704217,"lng":140.267828},{"name":"Enokido","ja":"榎戸","lat":35.683967,"lng":140.288136},{"name":"Yashima","ja":"八街","lat":35.663228,"lng":140.317304},{"name":"Hyuga","ja":"日向","lat":35.628402,"lng":140.362447},{"name":"Nanto","ja":"成東","lat":35.608513,"lng":140.410109},{"name":"Matsuo","ja":"松尾","lat":35.63604,"lng":140.457587},{"name":"Yokosuka","ja":"横芝","lat":35.661739,"lng":140.490736},{"name":"Iikura","ja":"飯倉","lat":35.685638,"lng":140.522328},{"name":"Yokkaichi","ja":"八日市場","lat":35.699317,"lng":140.552419},{"name":"Tideland","ja":"干潟","lat":35.718308,"lng":140.603304},{"name":"Asahi","ja":"旭","lat":35.721831,"lng":140.655041},{"name":"Iioka","ja":"飯岡","lat":35.729339,"lng":140.683896},{"name":"Kurahashi","ja":"倉橋","lat":35.737836,"lng":140.714018},{"name":"Saruta","ja":"猿田","lat":35.747383,"lng":140.7374},{"name":"Matsukishi","ja":"松岸","lat":35.739386,"lng":140.795143},{"name":"Choshi","ja":"銚子","lat":35.729449,"lng":140.827557}]},{"id":11320,"name":"JR Joban Line (Ueno - Toride)","ja":"JR常磐線(上野～取手)","color":"#009BBF","circular":false,"stations":[{"name":"Ueno","ja":"上野","lat":35.71379,"lng":139.777043},{"name":"Nippori","ja":"日暮里","lat":35.727908,"lng":139.771287},{"name":"Mikawa Island","ja":"三河島","lat":35.733383,"lng":139.777131},{"name":"Minami-senju","ja":"南千住","lat":35.734033,"lng":139.7994},{"name":"Kita Senju","ja":"北千住","lat":35.749677,"lng":139.804872},{"name":"Ayase","ja":"綾瀬","lat":35.762222,"lng":139.825019},{"name":"Kameari","ja":"亀有","lat":35.766527,"lng":139.847573},{"name":"Kanamachi","ja":"金町","lat":35.769582,"lng":139.870482},{"name":"Matsudo","ja":"松戸","lat":35.784472,"lng":139.900779},{"name":"Kita Matsudo","ja":"北松戸","lat":35.800459,"lng":139.911528},{"name":"Moribashi","ja":"馬橋","lat":35.811682,"lng":139.917305},{"name":"Shin-Matsudo","ja":"新松戸","lat":35.825467,"lng":139.921076},{"name":"Kita Kogane","ja":"北小金","lat":35.833436,"lng":139.931303},{"name":"South Kishi","ja":"南柏","lat":35.844655,"lng":139.954111},{"name":"oak","ja":"柏","lat":35.862316,"lng":139.971148},{"name":"Kitakami","ja":"北柏","lat":35.875623,"lng":139.988035},{"name":"Abiko","ja":"我孫子","lat":35.87279,"lng":140.010466},{"name":"Tenodai","ja":"天王台","lat":35.872558,"lng":140.04121},{"name":"Handle","ja":"取手","lat":35.89553,"lng":140.063004}]},{"id":11324,"name":"JR Sobo Line","ja":"JR外房線","color":"#4f5573","circular":false,"stations":[{"name":"Chiba","ja":"千葉","lat":35.613425,"lng":140.112837},{"name":"Honchiba","ja":"本千葉","lat":35.601202,"lng":140.120987},{"name":"Soga","ja":"蘇我","lat":35.582065,"lng":140.130767},{"name":"Kamo","ja":"鎌取","lat":35.562795,"lng":140.178583},{"name":"Honda","ja":"誉田","lat":35.546996,"lng":140.213748},{"name":"Soil","ja":"土気","lat":35.530866,"lng":140.269783},{"name":"Omentum","ja":"大網","lat":35.522427,"lng":140.311111},{"name":"Nagata","ja":"永田","lat":35.503129,"lng":140.311162},{"name":"Main delivery","ja":"本納","lat":35.48227,"lng":140.30758},{"name":"Shinbara","ja":"新茂原","lat":35.449477,"lng":140.29983},{"name":"Mobara","ja":"茂原","lat":35.426733,"lng":140.304121},{"name":"Yokka","ja":"八積","lat":35.403971,"lng":140.345367},{"name":"Kazusa Ichinomiya","ja":"上総一ノ宮","lat":35.373401,"lng":140.365138},{"name":"Eastern view","ja":"東浪見","lat":35.34669,"lng":140.376706},{"name":"Taito","ja":"太東","lat":35.319942,"lng":140.381184},{"name":"Nagashimachi","ja":"長者町","lat":35.295839,"lng":140.385021},{"name":"Three gate","ja":"三門","lat":35.282377,"lng":140.391567},{"name":"Ohara","ja":"大原","lat":35.251097,"lng":140.390864},{"name":"Naniwa","ja":"浪花","lat":35.222674,"lng":140.379428},{"name":"Onjyo","ja":"御宿","lat":35.188028,"lng":140.35197},{"name":"Katsuura","ja":"勝浦","lat":35.152722,"lng":140.312142},{"name":"Ubara","ja":"鵜原","lat":35.140828,"lng":140.278446},{"name":"Kamakusozu","ja":"上総興津","lat":35.137146,"lng":140.250487},{"name":"Yukawa Island","ja":"行川アイランド","lat":35.11832,"lng":140.226962},{"name":"Awa Kominato","ja":"安房小湊","lat":35.128597,"lng":140.190337},{"name":"Abe Tenzu","ja":"安房天津","lat":35.125473,"lng":140.154487},{"name":"Awa Kamogawa","ja":"安房鴨川","lat":35.107465,"lng":140.103566}]},{"id":11325,"name":"JR Uchibo Line","ja":"JR内房線","color":"#7b5260","circular":false,"stations":[{"name":"Chiba","ja":"千葉","lat":35.613425,"lng":140.112837},{"name":"Honchiba","ja":"本千葉","lat":35.601202,"lng":140.120987},{"name":"Soga","ja":"蘇我","lat":35.582065,"lng":140.130767},{"name":"Hamano","ja":"浜野","lat":35.551876,"lng":140.132089},{"name":"Yawatajuku","ja":"八幡宿","lat":35.536189,"lng":140.120072},{"name":"Goi","ja":"五井","lat":35.512985,"lng":140.089522},{"name":"Anegasaki","ja":"姉ケ崎","lat":35.4786,"lng":140.041749},{"name":"Nagaura","ja":"長浦","lat":35.450234,"lng":139.995478},{"name":"Sodegaura","ja":"袖ケ浦","lat":35.431997,"lng":139.95788},{"name":"Iwane","ja":"巌根","lat":35.414285,"lng":139.933229},{"name":"Kisarazu","ja":"木更津","lat":35.381668,"lng":139.92611},{"name":"Kimitsu","ja":"君津","lat":35.333619,"lng":139.895697},{"name":"Blue moat","ja":"青堀","lat":35.330304,"lng":139.858189},{"name":"Good fortune","ja":"大貫","lat":35.291661,"lng":139.855541},{"name":"Satocho","ja":"佐貫町","lat":35.260113,"lng":139.876106},{"name":"Kozo Minami","ja":"上総湊","lat":35.221855,"lng":139.871016},{"name":"Takeoka","ja":"竹岡","lat":35.197582,"lng":139.830159},{"name":"Hama Kanaya","ja":"浜金谷","lat":35.168215,"lng":139.822141},{"name":"Yasuda","ja":"保田","lat":35.14148,"lng":139.838114},{"name":"Awa Katsuyama","ja":"安房勝山","lat":35.114022,"lng":139.83339},{"name":"Iwai","ja":"岩井","lat":35.093062,"lng":139.849839},{"name":"Miura","ja":"富浦","lat":35.04614,"lng":139.837811},{"name":"Nako ship form","ja":"那古船形","lat":35.028987,"lng":139.851388},{"name":"Tateyama","ja":"館山","lat":34.9959,"lng":139.861888},{"name":"Kuju","ja":"九重","lat":34.99752,"lng":139.911383},{"name":"Chikura","ja":"千倉","lat":34.976704,"lng":139.954738},{"name":"Chitose","ja":"千歳","lat":34.991701,"lng":139.966378},{"name":"Minami Sanabara","ja":"南三原","lat":35.021065,"lng":139.979204},{"name":"Wada 浦","ja":"和田浦","lat":35.041885,"lng":140.019569},{"name":"Ema","ja":"江見","lat":35.062513,"lng":140.061026},{"name":"Great sea","ja":"太海","lat":35.081435,"lng":140.096229},{"name":"Awa Kamogawa","ja":"安房鴨川","lat":35.107465,"lng":140.103566}]},{"id":11326,"name":"JR Keiyo Line","ja":"JR京葉線","color":"#DC143C","circular":false,"stations":[{"name":"Tokyo","ja":"東京","lat":35.681391,"lng":139.766103},{"name":"Hatchobori","ja":"八丁堀","lat":35.674617,"lng":139.777705},{"name":"Echigoshima","ja":"越中島","lat":35.667946,"lng":139.792713},{"name":"Tide","ja":"潮見","lat":35.658702,"lng":139.817341},{"name":"Shinkiba","ja":"新木場","lat":35.646172,"lng":139.827402},{"name":"Kasai Rinkai Park","ja":"葛西臨海公園","lat":35.644392,"lng":139.861529},{"name":"Maihama","ja":"舞浜","lat":35.636115,"lng":139.883714},{"name":"Shin-Urayasu","ja":"新浦安","lat":35.649526,"lng":139.912553},{"name":"Ichikawa Shihama","ja":"市川塩浜","lat":35.666554,"lng":139.923684},{"name":"Nishi-Funabashi","ja":"西船橋","lat":35.707283,"lng":139.959536},{"name":"Minamata Shinmachi","ja":"二俣新町","lat":35.691273,"lng":139.959525},{"name":"Minamifunebashi","ja":"南船橋","lat":35.681804,"lng":139.995773},{"name":"Shinbashi","ja":"新習志野","lat":35.667342,"lng":140.012825},{"name":"Kaihumakuhari","ja":"海浜幕張","lat":35.648373,"lng":140.041917},{"name":"Kemigawa 浜","ja":"検見川浜","lat":35.637291,"lng":140.058888},{"name":"Inage coast","ja":"稲毛海岸","lat":35.629501,"lng":140.074034},{"name":"Chiba Minato","ja":"千葉みなと","lat":35.606172,"lng":140.10341},{"name":"Soga","ja":"蘇我","lat":35.582065,"lng":140.130767}]},{"id":11327,"name":"JR Narita Line","ja":"JR成田線","color":"#6074c5","circular":false,"stations":[{"name":"Sakura","ja":"佐倉","lat":35.709743,"lng":140.226722},{"name":"Sakurai","ja":"酒々井","lat":35.731737,"lng":140.275271},{"name":"Narita","ja":"成田","lat":35.777796,"lng":140.313853},{"name":"Airport Second Building (2nd Passenger Terminal)","ja":"空港第２ビル（第２旅客ターミナル）","lat":35.773327,"lng":140.387871},{"name":"Narita Airport (1st Passenger Terminal)","ja":"成田空港（第１旅客ターミナル）","lat":35.763983,"lng":140.384644},{"name":"Kumi","ja":"久住","lat":35.832232,"lng":140.338929},{"name":"River","ja":"滑河","lat":35.877079,"lng":140.347871},{"name":"Shimojinzaki","ja":"下総神崎","lat":35.8948,"lng":140.410657},{"name":"Ooto","ja":"大戸","lat":35.890004,"lng":140.457828},{"name":"Sawara","ja":"佐原","lat":35.894522,"lng":140.494074},{"name":"Katori","ja":"香取","lat":35.897856,"lng":140.532367},{"name":"A waterfall","ja":"水郷","lat":35.885508,"lng":140.570181},{"name":"Omigawa","ja":"小見川","lat":35.849971,"lng":140.604587},{"name":"Sasagawa","ja":"笹川","lat":35.839753,"lng":140.655716},{"name":"Shimo Tachibana","ja":"下総橘","lat":35.818673,"lng":140.702273},{"name":"Shimonoseki Shimosa","ja":"下総豊里","lat":35.792899,"lng":140.721011},{"name":"Shishabe","ja":"椎柴","lat":35.765204,"lng":140.758875},{"name":"Matsukishi","ja":"松岸","lat":35.739386,"lng":140.795143},{"name":"Choshi","ja":"銚子","lat":35.729449,"lng":140.827557},{"name":"Abiko","ja":"我孫子","lat":35.87279,"lng":140.010466},{"name":"Tohige Suko","ja":"東我孫子","lat":35.868945,"lng":140.047754},{"name":"Hubei","ja":"湖北","lat":35.867165,"lng":140.077959},{"name":"A new tree","ja":"新木","lat":35.862352,"lng":140.107048},{"name":"Fisher","ja":"布佐","lat":35.849371,"lng":140.13293},{"name":"Kinoshita","ja":"木下","lat":35.838817,"lng":140.147954},{"name":"Kobayashi","ja":"小林","lat":35.830783,"lng":140.193028},{"name":"A cheap meal","ja":"安食","lat":35.835682,"lng":140.242051},{"name":"Shimo Matsuzaki","ja":"下総松崎","lat":35.807806,"lng":140.27749}]},{"id":11328,"name":"JR Narita Express","ja":"JR成田エクスプレス","color":"#f0757f","circular":false,"stations":[{"name":"Oboe","ja":"大船","lat":35.353466,"lng":139.531127},{"name":"Totsuka","ja":"戸塚","lat":35.400432,"lng":139.534282},{"name":"Yokohama","ja":"横浜","lat":35.466195,"lng":139.622704},{"name":"Musashi Kosugi","ja":"武蔵小杉","lat":35.575965,"lng":139.663278},{"name":"Omiya","ja":"大宮","lat":35.906439,"lng":139.62405},{"name":"Ikebukuro","ja":"池袋","lat":35.730256,"lng":139.711086},{"name":"Shinjuku","ja":"新宿","lat":35.689729,"lng":139.700464},{"name":"Takao","ja":"高尾","lat":35.642026,"lng":139.282288},{"name":"Hachioji","ja":"八王子","lat":35.655555,"lng":139.338998},{"name":"Tachikawa","ja":"立川","lat":35.698202,"lng":139.413704},{"name":"Kokubunji","ja":"国分寺","lat":35.700123,"lng":139.480841},{"name":"Mitaka","ja":"三鷹","lat":35.702683,"lng":139.560325},{"name":"Kichijoji","ja":"吉祥寺","lat":35.703119,"lng":139.579765},{"name":"Shibuya","ja":"渋谷","lat":35.658871,"lng":139.701238},{"name":"Shinagawa","ja":"品川","lat":35.62876,"lng":139.738999},{"name":"Tokyo","ja":"東京","lat":35.681391,"lng":139.766103},{"name":"Chiba","ja":"千葉","lat":35.613425,"lng":140.112837},{"name":"Yotsukaido","ja":"四街道","lat":35.662756,"lng":140.165023},{"name":"Narita","ja":"成田","lat":35.777796,"lng":140.313853},{"name":"Airport Second Building (2nd Passenger Terminal)","ja":"空港第２ビル（第２旅客ターミナル）","lat":35.773693,"lng":140.387163},{"name":"Narita Airport (1st Passenger Terminal)","ja":"成田空港（第１旅客ターミナル）","lat":35.763983,"lng":140.384644}]},{"id":11329,"name":"JR Kashima Line","ja":"JR鹿島線","color":"#65fdfa","circular":false,"stations":[{"name":"Sawara","ja":"佐原","lat":35.894522,"lng":140.494074},{"name":"Katori","ja":"香取","lat":35.897856,"lng":140.532367},{"name":"Twelve bridges","ja":"十二橋","lat":35.916984,"lng":140.545707},{"name":"Itinerary","ja":"潮来","lat":35.936904,"lng":140.549473},{"name":"Elongation","ja":"延方","lat":35.958072,"lng":140.58875},{"name":"Kashima Shrine","ja":"鹿島神宮","lat":35.970614,"lng":140.625676},{"name":"Kajima football stadium (clinic)","ja":"鹿島サッカースタジアム（臨）","lat":35.992707,"lng":140.63606}]},{"id":11330,"name":"JR Kurumin Line","ja":"JR久留里線","color":"#4eed47","circular":false,"stations":[{"name":"Kisarazu","ja":"木更津","lat":35.381668,"lng":139.92611},{"name":"Gion","ja":"祇園","lat":35.391528,"lng":139.948111},{"name":"Kazusigeikawa","ja":"上総清川","lat":35.390981,"lng":139.965612},{"name":"Togeki River","ja":"東清川","lat":35.390017,"lng":139.985847},{"name":"Yokota","ja":"横田","lat":35.386207,"lng":140.020138},{"name":"Toyodate","ja":"東横田","lat":35.386185,"lng":140.035995},{"name":"Ma Kureta","ja":"馬来田","lat":35.36681,"lng":140.058485},{"name":"Shimonori","ja":"下郡","lat":35.355018,"lng":140.055372},{"name":"Small chest","ja":"小櫃","lat":35.328252,"lng":140.059794},{"name":"Bowl","ja":"俵田","lat":35.314495,"lng":140.061386},{"name":"Kururi","ja":"久留里","lat":35.295812,"lng":140.075613},{"name":"Hirayama","ja":"平山","lat":35.274312,"lng":140.064682},{"name":"Kazusa Matsuoka","ja":"上総松丘","lat":35.258226,"lng":140.064046},{"name":"Kamusa Kameyama","ja":"上総亀山","lat":35.233153,"lng":140.089479}]},{"id":11331,"name":"JR Tokinen Line","ja":"JR東金線","color":"#42c14e","circular":false,"stations":[{"name":"Omentum","ja":"大網","lat":35.522427,"lng":140.311111},{"name":"Fukara","ja":"福俵","lat":35.54617,"lng":140.341904},{"name":"Togane","ja":"東金","lat":35.560172,"lng":140.363743},{"name":"Appointment","ja":"求名","lat":35.579947,"lng":140.39626},{"name":"Nanto","ja":"成東","lat":35.608513,"lng":140.410109}]},{"id":21004,"name":"Tobu Noda line","ja":"東武野田線","color":"#003087","circular":false,"stations":[{"name":"Omiya","ja":"大宮","lat":35.907599,"lng":139.624458},{"name":"Kitamiya","ja":"北大宮","lat":35.91716,"lng":139.624726},{"name":"Omiya Park","ja":"大宮公園","lat":35.92374,"lng":139.632903},{"name":"Owada","ja":"大和田","lat":35.929359,"lng":139.65051},{"name":"Shichiri","ja":"七里","lat":35.936464,"lng":139.665948},{"name":"Iwatsuki","ja":"岩槻","lat":35.950239,"lng":139.693197},{"name":"Toagoseki","ja":"東岩槻","lat":35.963273,"lng":139.712192},{"name":"Fushun","ja":"豊春","lat":35.968014,"lng":139.72601},{"name":"Yagisaki","ja":"八木崎","lat":35.978376,"lng":139.741785},{"name":"Kasukabe","ja":"春日部","lat":35.980095,"lng":139.752345},{"name":"Fujisobeojima","ja":"藤の牛島","lat":35.98026,"lng":139.778038},{"name":"Minami Sakurai","ja":"南桜井","lat":35.980441,"lng":139.807988},{"name":"Riverside","ja":"川間","lat":35.979172,"lng":139.83385},{"name":"Shikokoshidai","ja":"七光台","lat":35.970884,"lng":139.852906},{"name":"Shimizu Park","ja":"清水公園","lat":35.959364,"lng":139.85967},{"name":"Atago","ja":"愛宕","lat":35.950154,"lng":139.864817},{"name":"Noda-shi","ja":"野田市","lat":35.943652,"lng":139.870728},